Phage Name,Latitude,Longitude,Zipcode,Population Density,County,pH,Waterquality,GHI,Dew Point,Albedo,AQI,PM25,PM10,CO_8H,NO2_1H,SO3_1H
244,40.444259,-79.95320799999998,15260,,Allegheny County,7.4504907975460135,"Stable, normal stage",165.3197488584475,6.24406392694064,0.21063013698629074,35.0,8.4,37.0,3.0,37.0,24.0
244,40.444259,-79.95320799999998,15260,,Allegheny County,7.4504907975460135,"Stable, normal stage",165.3197488584475,6.24406392694064,0.21063013698629074,35.0,8.4,37.0,3.0,37.0,24.0
ABCat,41.33,-72.94800000000002,06511,9041.0,New Haven County,7.902839776569157,Not applicable,171.77636986301368,6.426255707762557,0.1953424657534197,53.0,13.0,59.0,4.7,55.0,37.0
ABCat,41.33,-72.94800000000002,06511,9041.0,New Haven County,7.902839776569157,Not applicable,171.77636986301368,6.426255707762557,0.1953424657534197,53.0,13.0,59.0,4.7,55.0,37.0
ABU,40.639708,-75.379356,18107,,Northampton County,7.834701141591402,"Stable, normal stage",170.40136986301368,6.246461187214612,0.2342739726027997,42.0,10.0,45.0,3.6,44.0,29.0
ABU,40.639708,-75.379356,18107,,Northampton County,7.834701141591402,"Stable, normal stage",170.40136986301368,6.246461187214612,0.2342739726027997,42.0,10.0,45.0,3.6,44.0,29.0
ACFishhook,39.101453,-96.61059,66502,191.0,Riley County,7.833907596847206,"Stable, high stage",189.89531963470318,6.363470319634702,0.21150684931509056,24.0,5.7,25.0,2.1,25.0,16.0
ACFishhook,39.101453,-96.61059,66502,191.0,Riley County,7.833907596847206,"Stable, high stage",189.89531963470318,6.363470319634702,0.21150684931509056,24.0,5.7,25.0,2.1,25.0,16.0
AFIS,40.421086,-86.922207,47907,,Tippecanoe County,7.7553144971708114,Not applicable,173.16632420091324,6.472374429223744,0.2340821917808549,12.0,2.8,12.0,1.0,12.0,8.0
AN3,32.1656,-82.9001,,,Dodge County,,,204.80273972602745,12.829908675799091,0.12789041095889073,41.0,9.8,44.0,3.6,43.0,28.0
AN9,32.1656,-82.9001,,,Dodge County,,,204.80273972602745,12.829908675799091,0.12789041095889073,41.0,9.8,44.0,3.6,43.0,28.0
ANI8,32.1656,-82.9001,,,Dodge County,,,204.80273972602745,12.829908675799091,0.12789041095889073,41.0,9.8,44.0,3.6,43.0,28.0
ASerpRocky,40.444285,-79.955213,15213,14474.0,Allegheny County,7.812237151557299,"Stable, normal stage",165.3197488584475,6.24406392694064,0.21063013698629074,35.0,8.4,37.0,3.0,37.0,24.0
Aaronocolus,33.213,-97.148,76201,4857.0,Denton County,7.9848855905999025,"Stable, normal stage",208.52066210045663,10.775228310502284,0.16802739726028745,42.0,10.0,45.0,3.6,44.0,29.0
Aaronocolus,33.213,-97.148,76201,4857.0,Denton County,7.9848855905999025,"Stable, normal stage",208.52066210045663,10.775228310502284,0.16802739726028745,42.0,10.0,45.0,3.6,44.0,29.0
Abba,34.067996,-118.450765,90024,16154.0,Los Angeles County,7.966310096153876,Not applicable,226.7365296803653,8.049885844748859,0.13852054794521435,42.0,10.0,45.0,3.6,44.0,29.0
Abba,34.067996,-118.450765,90024,16154.0,Los Angeles County,7.966310096153876,Not applicable,226.7365296803653,8.049885844748859,0.13852054794521435,42.0,10.0,45.0,3.6,44.0,29.0
AbbeyMikolon,41.244625,-75.88789,18766,,Luzerne County,7.918820010875497,"Stable, normal stage",161.1986301369863,5.206050228310502,0.21419178082192605,35.0,8.4,37.0,3.0,37.0,24.0
AbbeyMikolon,41.244625,-75.88789,18766,,Luzerne County,7.918820010875497,"Stable, normal stage",161.1986301369863,5.206050228310502,0.21419178082192605,35.0,8.4,37.0,3.0,37.0,24.0
AbbysRanger,37.39757,-85.01984,42539,47.0,Casey County,,,179.7229452054794,8.31986301369863,0.1678630136986592,47.0,11.2,50.0,4.1,49.0,32.0
AbbysRanger,37.39757,-85.01984,42539,47.0,Casey County,,,179.7229452054794,8.31986301369863,0.1678630136986592,47.0,11.2,50.0,4.1,49.0,32.0
Abdiel,38.643888,-90.311944,63143,4910.0,Saint Louis County,7.905922506065358,Falling stage,181.73047945205482,7.855136986301369,0.16241095890411614,38.0,9.1,41.0,3.3,40.0,26.0
Abdiel,38.643888,-90.311944,63143,4910.0,Saint Louis County,7.905922506065358,Falling stage,181.73047945205482,7.855136986301369,0.16241095890411614,38.0,9.1,41.0,3.3,40.0,26.0
Abidatro,40.862,-74.1987,07043,4671.0,Essex County,7.8498127909825985,,171.08047945205482,6.804680365296804,0.1824931506849266,42.0,10.0,45.0,3.6,44.0,29.0
Abidatro,40.862,-74.1987,07043,4671.0,Essex County,7.8498127909825985,,171.08047945205482,6.804680365296804,0.1824931506849266,42.0,10.0,45.0,3.6,44.0,29.0
Abinghost,38.5514,-77.0112,20646,229.0,Charles County,7.8498127909825985,,183.87340182648398,8.588470319634705,0.15605479452053705,47.0,11.2,50.0,4.1,49.0,32.0
Abinghost,38.5514,-77.0112,20646,229.0,Charles County,7.8498127909825985,,183.87340182648398,8.588470319634705,0.15605479452053705,47.0,11.2,50.0,4.1,49.0,32.0
Abrogate,44.853317,-92.616408,54022,159.0,Pierce County,7.827595733664693,,162.46746575342462,2.0579908675799095,0.3163013698630409,21.0,5.0,22.0,1.8,22.0,14.0
Abrogate,44.853317,-92.616408,54022,159.0,Pierce County,7.827595733664693,,162.46746575342462,2.0579908675799095,0.3163013698630409,21.0,5.0,22.0,1.8,22.0,14.0
AbsoluteMadLad,47.5916,-114.1112,59855,1326.0,Lake County,7.832724321012856,,152.4030821917808,0.2541095890410959,0.3811506849314715,37.0,8.8,39.0,3.2,39.0,25.0
AbsoluteMadLad,47.5916,-114.1112,59855,1326.0,Lake County,7.832724321012856,,152.4030821917808,0.2541095890410959,0.3811506849314715,37.0,8.8,39.0,3.2,39.0,25.0
Abt2graduatex2,39.257815,-76.706519,21228,3070.0,Baltimore County,7.836801939897794,,180.49235159817349,7.419178082191781,0.17175342465754556,34.0,8.1,36.0,2.9,36.0,23.0
Abt2graduatex2,39.257815,-76.706519,21228,3070.0,Baltimore County,7.836801939897794,,180.49235159817349,7.419178082191781,0.17175342465754556,34.0,8.1,36.0,2.9,36.0,23.0
Acadian,30.213741,-92.017924,70503,2346.0,Lafayette Parish,7.831058056872027,Not applicable,203.01541095890408,15.767808219178082,0.14958904109590185,10.0,2.4,10.0,0.8,10.0,7.0
Acadian,30.213741,-92.017924,70503,2346.0,Lafayette Parish,7.831058056872027,Not applicable,203.01541095890408,15.767808219178082,0.14958904109590185,10.0,2.4,10.0,0.8,10.0,7.0
Achebe,36.98543,-86.44900600000004,,,Warren County,,,181.31529680365296,9.667157534246572,0.16150684931508502,44.0,10.5,47.0,3.8,46.0,30.0
Achebe,36.98543,-86.44900600000004,,,Warren County,,,181.31529680365296,9.667157534246572,0.16150684931508502,44.0,10.5,47.0,3.8,46.0,30.0
Acme,44.900917,-68.668778,04469,11187.0,Penobscot County,7.8302763998340765,,158.55593607305937,3.4551369863013703,0.3524383561643947,25.0,6.0,27.0,2.2,26.0,17.0
Acme,44.900917,-68.668778,04469,11187.0,Penobscot County,7.8302763998340765,,158.55593607305937,3.4551369863013703,0.3524383561643947,25.0,6.0,27.0,2.2,26.0,17.0
Acolyte,44.374232,-68.07,06493,,Hancock County,7.821160748125548,,163.2658675799087,4.321118721461187,0.30819178082188103,33.0,7.9,35.0,2.9,34.0,23.0
Acolyte,44.374232,-68.07,06493,,Hancock County,7.821160748125548,,163.2658675799087,4.321118721461187,0.30819178082188103,33.0,7.9,35.0,2.9,34.0,23.0
Acquire49,37.08277800000001,-84.101389,40744,174.0,Laurel County,7.813027547076706,Not determined,176.6529680365297,8.161872146118721,0.18260273972606586,48.0,11.5,51.0,4.2,50.0,33.0
ActinUp,40.310755,-79.559596,15601,690.0,Westmoreland County,7.810526964560846,"Stable, normal stage",166.1246575342466,6.005365296803652,0.2430410958904581,36.0,8.6,38.0,3.1,38.0,25.0
Adahisdi,35.32,-83.17,28788,,Jackson County,7.806250126807188,,190.76586757990867,7.947031963470319,0.13506849315066227,26.0,6.2,28.0,2.2,27.0,18.0
Adaia,40.9046,-75.3863,18353,271.0,Monroe County,7.7955433666325655,Not applicable,168.2942922374429,5.228196347031964,0.2135342465753796,38.0,9.1,41.0,3.3,40.0,26.0
Adat,40.0075,-83.023,43210,6102.0,Franklin County,7.79570026840369,"Stable, normal stage",171.3874429223744,6.369520547945205,0.2559452054794956,13.0,3.1,14.0,1.1,13.0,9.0
Adelaide,33.543682000000004,-86.77963299999998,35234,1772.0,Jefferson County,7.799989594174307,,196.86780821917807,11.498744292237447,0.13854794520548586,58.0,15.4,69.0,5.2,60.0,41.0
Adephagia,33.211822,-97.148636,76203,,Denton County,7.802522136377377,Rising stage,208.52066210045663,10.775228310502284,0.16802739726028745,42.0,10.0,45.0,3.6,44.0,29.0
Adgers,32.776097,-79.925374,29415,,Charleston County,7.800482654561818,,199.05627853881282,15.504337899543383,0.08495890410960122,44.0,10.5,47.0,3.8,46.0,30.0
Ading,40.037778,-75.149167,19141,17301.0,Philadelphia County,7.793342777332058,"Stable, low stage",178.07477168949768,7.106735159817353,0.14227397260271732,67.0,19.7,87.0,6.1,69.0,48.0
Adjutor,40.444259,-79.95320799999998,15260,,Allegheny County,7.4504907975460135,"Stable, normal stage",165.3197488584475,6.24406392694064,0.21063013698629074,35.0,8.4,37.0,3.0,37.0,24.0
Adlitam,41.51,-74.01,12550,1568.0,Orange County,7.784724711945782,"Stable, low stage",166.26986301369863,5.754566210045662,0.2304383561643113,8.0,1.9,8.0,0.7,8.0,5.0
Adnama,38.281667,-85.700389,40207,2559.0,Jefferson County,7.7847676063492095,"Stable, normal stage",176.84326484018266,8.77431506849315,0.16509589041092906,52.0,12.5,57.0,4.6,54.0,36.0
Adolin,40.445,-79.955,15260,,Allegheny County,7.782915793805815,"Stable, normal stage",165.3197488584475,6.24406392694064,0.21063013698629074,35.0,8.4,37.0,3.0,37.0,24.0
Adonis,33.078706,-83.216461,31061,185.0,Baldwin County,7.73823534924372,,199.9131278538813,11.967557077625578,0.13375342465751472,41.0,9.8,44.0,3.6,43.0,28.0
Adora,40.78621500000001,-80.33044100000002,15010,568.0,Beaver County,7.7407396036485565,"Stable, normal stage",165.30433789954338,5.437214611872146,0.2663561643835937,31.0,7.4,33.0,2.7,32.0,21.0
Adriana,,,,,,,,169.36986301369862,5.388698630136986,0.2720000000000412,30.0,7.2,32.0,2.6,31.0,21.0
Adumb2043,38.89966,-104.69988,80922,4448.0,El Paso County,7.7468048053950085,Not applicable,210.06347031963472,-2.189406392694065,0.25564383561647536,15.0,3.6,16.0,1.3,15.0,10.0
Aelin,,,,,,,,161.6349315068493,0.4272831050228311,0.3260273972602788,25.0,6.0,27.0,2.2,26.0,17.0
Aeneas,40.244701,-111.650247,84606,2853.0,Utah County,7.771421832759253,,195.16518264840184,-1.4984132420091318,0.3083835616438892,39.0,9.3,42.0,3.4,41.0,27.0
Aesir,,,,,,,,177.46598173515983,6.089155251141553,0.2780547945205721,28.0,6.7,30.0,2.4,29.0,19.0
Affeca,40.443889,-79.955556,15213,14474.0,Allegheny County,7.770361988619722,"Stable, normal stage",165.3197488584475,6.24406392694064,0.21063013698629074,35.0,8.4,37.0,3.0,37.0,24.0
Agape74,42.786111,-86.101667,49423,580.0,Ottawa County,7.756318939660572,"Stable, high stage",166.8412100456621,5.32468036529679,0.2966849315068809,26.0,6.2,28.0,2.2,27.0,18.0
Agatha,40.44694000000001,-79.95167,15213,14474.0,Allegheny County,7.7555083575247235,"Stable, normal stage",165.3197488584475,6.24406392694064,0.21063013698629074,35.0,8.4,37.0,3.0,37.0,24.0
AgentM,34.06,-118.45,90024-2704,,Los Angeles County,7.756254867038096,Not applicable,226.7365296803653,8.049885844748859,0.13852054794521435,42.0,10.0,45.0,3.6,44.0,29.0
Aggie,36.079112,-79.77063299999998,27411,,Guilford County,7.751165811089068,,188.952397260274,8.9513698630137,0.1366301369862883,38.0,9.1,41.0,3.3,40.0,26.0
Aglet,41.843542,-71.43571999999998,02918,,,7.74685697236767,"Stable, normal stage",170.22454337899543,5.75115296803653,0.19347945205478892,50.0,12.0,54.0,4.4,53.0,35.0
AgronaGT15,43.647,-70.2283,04106,2061.0,Cumberland County,7.7364943850286565,Not applicable,162.80867579908673,5.131849315068493,0.18276712328763828,50.0,12.0,54.0,4.4,53.0,35.0
Ailee,40.44560300000001,-79.960464,15213,14474.0,Allegheny County,7.7359316523814945,"Stable, normal stage",166.06221461187215,6.1813470319634725,0.20728767123284966,35.0,8.4,37.0,3.0,37.0,24.0
Airmid,31.869302,-106.61006100000002,79932,1750.0,El Paso County,7.739098819941289,Not applicable,250.2574200913242,1.5787671232876712,0.20928767123290493,46.0,11.0,49.0,4.0,48.0,32.0
Ajay,33.9582,-117.573698,92880,2380.0,Riverside County,7.739657332471161,"Stable, low stage",230.6067351598174,4.384817351598174,0.16983561643837028,46.0,11.0,49.0,4.0,48.0,32.0
Akhila,40.7973,-73.694939,11030,2691.0,Nassau County,7.737248445962188,Not applicable,173.71095890410962,7.403082191780823,0.18046575342461632,45.0,10.8,48.0,3.9,47.0,31.0
Akoma,40.4443,-79.9532,15260,,Allegheny County,7.73660727886649,"Stable, normal stage",165.3197488584475,6.24406392694064,0.21063013698629074,35.0,8.4,37.0,3.0,37.0,24.0
Akoni,28.124411,-82.368309,33647,1624.0,Hillsborough County,7.700818521492407,,214.69429223744288,17.6513698630137,0.1339178082191552,24.0,5.7,25.0,2.1,25.0,16.0
AlainaMarie,42.916072,-85.64445400000002,49507,6427.0,Kent County,7.701427744796965,"Stable, low stage",165.81484018264842,3.9256849315068494,0.3191506849315407,26.0,6.2,28.0,2.2,27.0,18.0
Alakazam,30.549139,-87.218586,32514,1917.0,Escambia County,7.675750165098162,,206.77020547945202,15.432534246575342,0.1351780821917743,25.0,6.0,27.0,2.2,26.0,17.0
AlanGrant,40.441,-79.95,15260,,Allegheny County,7.674720469581898,"Stable, normal stage",165.3197488584475,6.24406392694064,0.21063013698629074,35.0,8.4,37.0,3.0,37.0,24.0
Alatin,44.984444,-92.754444,54016,442.0,Saint Croix County,7.696214569294332,,164.7658675799087,2.3207762557077625,0.28578082191776977,21.0,5.0,22.0,1.8,22.0,14.0
Albee,40.661017,-73.40118299999997,11701,5683.0,Suffolk County,7.693956439432401,,170.27922374429227,8.182762557077625,0.10098630136987163,45.0,10.8,48.0,3.9,47.0,31.0
Albright,35.1895,-80.8324,28274,,Mecklenburg County,7.691936099355794,,195.1027397260274,9.98607305936073,0.12728767123286594,46.0,11.0,49.0,4.0,48.0,32.0
Aledel,42.318583,-72.640174,01060,1400.0,Hampshire County,7.691243162330272,Not applicable,165.00262557077625,4.547716894977169,0.2734246575342758,38.0,9.1,41.0,3.3,40.0,26.0
Alex44,42.0244,-93.6506,50012,5333.0,Story County,7.6916492533717,,173.34520547945206,3.9667922374429256,0.2451780821918307,17.0,4.0,18.0,1.4,18.0,11.0
AlexAdler,40.2663,-79.57087,15601,690.0,Westmoreland County,7.691423509937175,"Stable, normal stage",166.53344748858447,5.713356164383563,0.261835616438399,36.0,8.6,38.0,3.1,38.0,25.0
Alexphander,34.075071,-118.450961,90095,8.0,Los Angeles County,7.691395213736997,Not applicable,231.3809360730594,7.317465753424657,0.10972602739727212,42.0,10.0,45.0,3.6,44.0,29.0
Ali17,36.079167,-79.771389,27411,,Guilford County,7.689103365417442,,188.952397260274,8.9513698630137,0.1366301369862883,38.0,9.1,41.0,3.3,40.0,26.0
Alice,32.688207,-97.648082,76008,184.0,Parker County,7.696242764969601,,212.04280821917808,10.566438356164383,0.15742465753425885,38.0,9.1,41.0,3.3,40.0,26.0
Alleb,40.807982,-96.595328,68527,26.0,Lancaster County,7.717946167599658,"Stable, normal stage",182.00924657534247,5.000684931506847,0.2843287671233252,21.0,5.0,22.0,1.8,22.0,14.0
AlleyCat,36.5982,-86.26556,37186,87.0,Sumner County,7.718479552184262,,182.38219178082198,10.054680365296806,0.15539726027397874,44.0,10.5,47.0,3.8,46.0,30.0
AloeVera,28.0107,-82.5005,33614,4751.0,Hillsborough County,7.707143678556763,,218.94075342465754,17.80079908675799,0.14136986301370466,24.0,5.7,25.0,2.1,25.0,16.0
Alpacados,40.442222,-79.956389,15213,14474.0,Allegheny County,7.706157603507258,"Stable, normal stage",165.3197488584475,6.24406392694064,0.21063013698629074,35.0,8.4,37.0,3.0,37.0,24.0
Alsaber,33.174620000000004,-97.10656,76210,2463.0,Denton County,7.712992756732893,"Stable, normal stage",207.80901826484018,10.86107305936073,0.16652054794521928,42.0,10.0,45.0,3.6,44.0,29.0
Alsfro,40.792033,-74.205617,07003,8947.0,Essex County,7.7066037427668155,,171.88618721461188,7.031621004566211,0.18523287671231667,42.0,10.0,45.0,3.6,44.0,29.0
AltPhacts,34.066,-118.448,90095,8.0,Los Angeles County,7.706760015109737,,226.7365296803653,8.049885844748859,0.13852054794521435,42.0,10.0,45.0,3.6,44.0,29.0
Altwerkus,39.331256,-76.620347,21211,6225.0,,7.706760015109737,Falling stage,177.81438356164384,7.5454337899543376,0.1645479452054667,34.0,8.1,36.0,2.9,36.0,23.0
Alvin,40.447047,-79.956118,15213,14474.0,Allegheny County,7.705868027436671,"Stable, normal stage",165.3197488584475,6.24406392694064,0.21063013698629074,35.0,8.4,37.0,3.0,37.0,24.0
Alvy,32.879238,-117.23535,92093-0068,,San Diego County,7.71368939944913,Not applicable,226.3700913242009,10.005479452054798,0.135616438356161,48.0,11.5,51.0,4.2,50.0,33.0
Alyxandracam,35.51556,-97.663611,73123,,Oklahoma County,7.714340508866634,Rising stage,205.66038812785388,7.89497716894977,0.1989315068493268,59.0,15.9,71.0,5.3,61.0,42.0
Amataga,40.697085,-75.210983,18042,1964.0,Northampton County,7.714530903211242,"Stable, normal stage",169.95205479452054,6.534132420091324,0.1838082191780788,42.0,10.0,45.0,3.6,44.0,29.0
Amela,33.140588,-96.832041,75034,1454.0,Collin County,7.726031444958518,"Stable, normal stage",207.16815068493145,11.121038812785416,0.17397260273974582,43.0,10.3,46.0,3.7,45.0,30.0
Amelia,40.446667,-79.954167,15213,14474.0,Allegheny County,7.725826848473227,"Stable, normal stage",165.3197488584475,6.24406392694064,0.21063013698629074,35.0,8.4,37.0,3.0,37.0,24.0
Amelie,38.647778,-90.299722,63112,6157.0,,7.726309689508583,"Stable, normal stage",181.73047945205482,7.855136986301369,0.16241095890411614,38.0,9.1,41.0,3.3,40.0,26.0
Amethyst,33.2125,-97.14722,76203,,Denton County,7.731546919453268,"Stable, normal stage",208.52066210045663,10.775228310502284,0.16802739726028745,42.0,10.0,45.0,3.6,44.0,29.0
Amgine,41.845976,-85.660045,49091,228.0,Saint Joseph County,7.731907580377996,,167.5513698630137,5.074771689497717,0.31841095890414,8.0,1.9,8.0,0.7,8.0,5.0
Amigo,30.023958,-95.563788,77379,2807.0,Harris County,7.734925355561693,"Stable, normal stage",201.5087899543379,15.3087899543379,0.1511506849315121,34.0,8.1,36.0,2.9,36.0,23.0
Aminay,44.8368,-68.7457,04401,448.0,Penobscot County,7.733418938086115,,159.50125570776257,3.0409817351598174,0.3241369863013749,25.0,6.0,27.0,2.2,26.0,17.0
Amochick,33.171,-96.3627,75442,84.0,Collin County,7.7460820621702675,"Stable, normal stage",206.08310502283103,11.54417808219178,0.1599726027397365,37.0,8.8,39.0,3.2,39.0,25.0
Amohnition,37.226173,-76.738815,23185,828.0,James City County,7.740299303168181,,183.7318493150685,9.803995433789954,0.10019178082193766,57.0,14.9,67.0,5.1,59.0,40.0
Amore2,,,,,,,,166.61826484018266,6.101712328767122,0.21501369863012293,35.0,8.4,37.0,3.0,37.0,24.0
AnClar,26.460015,-81.780142,33965-6565,,Lee County,7.728746319468634,,218.46917808219175,18.86872146118721,0.14701369863014613,19.0,4.5,20.0,1.6,20.0,13.0
Anakin,42.276389,-71.807222,01609,5870.0,Worcester County,7.737951680096788,Not applicable,170.49326484018266,4.555388127853882,0.2352602739725997,46.0,11.0,49.0,4.0,48.0,32.0
Anamika,40.44556,-79.96278000000002,15213,14474.0,Allegheny County,7.737846433512278,"Stable, normal stage",166.06221461187215,6.1813470319634725,0.20728767123284966,35.0,8.4,37.0,3.0,37.0,24.0
Anansi,40.174754,-75.638035,19475,682.0,Chester County,7.737844149468708,"Stable, normal stage",173.58219178082192,7.039611872146119,0.22194520547949487,55.0,14.0,63.0,4.9,57.0,39.0
Anatole,34.067337,-118.441291,90095,8.0,Los Angeles County,7.7378011384901555,Not applicable,226.7365296803653,8.049885844748859,0.13852054794521435,42.0,10.0,45.0,3.6,44.0,29.0
Anaya,42.933022,-85.587226,,,Kent County,7.7379978629818496,Not applicable,165.19406392694063,4.544634703196347,0.30394520547947024,26.0,6.2,28.0,2.2,27.0,18.0
AndPeggy,40.2838,-79.5722,15601,690.0,Westmoreland County,7.724769491923045,"Stable, normal stage",166.52557077625568,5.989497716894977,0.2572328767123889,36.0,8.6,38.0,3.1,38.0,25.0
Anderson,,,,,,,,170.22454337899543,5.75115296803653,0.19347945205478892,50.0,12.0,54.0,4.4,53.0,35.0
Andies,32.467869,-94.725426,75602,475.0,Gregg County,7.724953621356682,Not applicable,199.6557077625571,11.948515981735161,0.13501369863011378,33.0,7.9,35.0,2.9,34.0,23.0
Andrew,40.445472,-79.998708,15222,4055.0,Allegheny County,7.724618729232714,"Stable, normal stage",166.06221461187215,6.1813470319634725,0.20728767123284966,35.0,8.4,37.0,3.0,37.0,24.0
Andromedas,35.3167,-83.1648,28723,101.0,Jackson County,7.722975181684035,,190.76586757990867,7.947031963470319,0.13506849315066227,26.0,6.2,28.0,2.2,27.0,18.0
Aneem,40.9,-74.55,07801,2591.0,Morris County,7.715705486138044,,169.8912100456621,6.217237442922374,0.2446027397260521,42.0,10.0,45.0,3.6,44.0,29.0
Angelica,38.640283,-90.29017,63110,2732.0,,7.716493173361754,Falling stage,181.73047945205482,7.855136986301369,0.16241095890411614,38.0,9.1,41.0,3.3,40.0,26.0
Angelicage,40.4419,-79.9575,15213,14474.0,Allegheny County,7.716377782747183,"Stable, normal stage",165.3197488584475,6.24406392694064,0.21063013698629074,35.0,8.4,37.0,3.0,37.0,24.0
Angelique,40.4439,-79.9575,15213,14474.0,Allegheny County,7.716369129916476,"Stable, normal stage",165.3197488584475,6.24406392694064,0.21063013698629074,35.0,8.4,37.0,3.0,37.0,24.0
Anglerfish,43.645983,-70.227333,04106,2061.0,Cumberland County,7.7158457868799655,Not applicable,162.80867579908673,5.131849315068493,0.18276712328763828,50.0,12.0,54.0,4.4,53.0,35.0
Animus,33.001746000000004,-96.864174,75287,8754.0,Denton County,7.88302725057793,"Stable, normal stage",210.16130136986303,10.997260273972604,0.1740547945205609,43.0,10.3,46.0,3.7,45.0,30.0
Anjali,40.447441,-79.955997,15213,14474.0,Allegheny County,7.882333719725929,"Stable, normal stage",165.3197488584475,6.24406392694064,0.21063013698629074,35.0,8.4,37.0,3.0,37.0,24.0
AnnaL29,40.340561,-111.603007,,,Utah County,7.884019950360995,,196.93698630136987,-1.7906392694063926,0.38446575342460776,39.0,9.3,42.0,3.4,41.0,27.0
AnnaLie,35.2644,-81.0159,28012,733.0,Gaston County,7.882948899995665,,196.26780821917808,9.912214611872146,0.13073972602738054,46.0,11.0,49.0,4.0,48.0,32.0
AnnaSerena,38.979347,-76.941565,20740,3598.0,Prince George's County,7.869958781196488,,179.2823059360731,7.501849315068495,0.16016438356162874,44.0,10.5,47.0,3.8,46.0,30.0
Annadreamy,33.2075,-97.1526,76203,,Denton County,7.8814545380783585,"Stable, normal stage",208.52066210045663,10.775228310502284,0.16802739726028745,42.0,10.0,45.0,3.6,44.0,29.0
Annihilator,38.6467,-90.2958,63105,6647.0,,7.870322775921018,Falling stage,181.73047945205482,7.855136986301369,0.16241095890411614,38.0,9.1,41.0,3.3,40.0,26.0
Annyong,41.788333,-72.844444,06001,784.0,Hartford County,7.869642297258055,"Stable, normal stage",170.22956621004568,5.097888127853883,0.21915068493153028,31.0,7.4,33.0,2.7,32.0,21.0
Anselm,46.813666,-92.106363,55811,403.0,Saint Louis County,7.863858488784661,"Stable, normal stage",158.26780821917808,0.9578767123287673,0.3918356164383128,17.0,4.0,18.0,1.4,18.0,11.0
Antares,39.9566,-75.1899,19151,12494.0,Philadelphia County,7.861746039123374,Not applicable,174.19646118721462,7.453995433789954,0.14523287671230675,67.0,19.7,87.0,6.1,69.0,48.0
Antoinette,40.077045,-80.925465,43950,191.0,Belmont County,7.8617787350846,"Stable, normal stage",166.51917808219181,6.304337899543379,0.2380273972602953,34.0,8.1,36.0,2.9,36.0,23.0
Antonia,43.3186,-98.3467,57313,6.0,Douglas County,,,176.68002283105022,2.227625570776256,0.34027397260274084,36.0,8.6,38.0,3.1,38.0,25.0
Antonio,40.4432,-79.9597,15213,14474.0,Allegheny County,7.861236260289267,"Stable, normal stage",165.3197488584475,6.24406392694064,0.21063013698629074,35.0,8.4,37.0,3.0,37.0,24.0
Anubis,40.252144,-111.668972,84601,2252.0,Utah County,7.864874467773161,,195.16518264840184,-1.4984132420091318,0.3083835616438892,39.0,9.3,42.0,3.4,41.0,27.0
Apex,41.107,-74.141,10901,1304.0,Rockland County,7.856148685163528,,172.11335616438353,6.0156392694063925,0.20939726027397865,23.0,5.5,24.0,2.0,24.0,16.0
Aphelion,37.270645,-76.713451,23186,,,7.844949589554207,,184.5970319634704,9.672374429223744,0.1367123287671037,57.0,14.9,67.0,5.1,59.0,40.0
Apizium,18.268889,-66.041944,00726,,Caguas,7.844777719482948,"Stable, normal stage",,,,,,,,,
Appa,39.326889,-76.62755600000001,21211,6225.0,,7.844648939682238,,177.81438356164384,7.5454337899543376,0.1645479452054667,34.0,8.1,36.0,2.9,36.0,23.0
AppleCider,42.197,-72.3824,01080,1351.0,Hampshire County,7.843826993556927,Not applicable,166.43082191780826,4.856232876712335,0.2400000000000317,50.0,12.0,54.0,4.4,53.0,35.0
AppleCloud,44.984444,-92.754444,54016,442.0,Saint Croix County,7.696214569294332,,164.7658675799087,2.3207762557077625,0.28578082191776977,21.0,5.0,22.0,1.8,22.0,14.0
Appletree2,39.3825,-119.7416,89511,168.0,Washoe County,7.841321128592584,Not applicable,216.91164383561645,-1.6848173515981737,0.3040547945205557,25.0,6.0,27.0,2.2,26.0,17.0
Apricot,42.619701,-87.821162,53140,3473.0,Kenosha County,7.843146809211492,"Stable, normal stage",166.74212328767123,4.8859589041095886,0.2167945205478883,35.0,8.4,37.0,3.0,37.0,24.0
ArMaWen,39.255283,-76.707849,21228,3070.0,Baltimore County,7.81658254125142,,180.49235159817349,7.419178082191781,0.17175342465754556,34.0,8.1,36.0,2.9,36.0,23.0
Araceli,33.2077,-97.1524,76203,,Denton County,7.85310458510551,"Stable, normal stage",208.52066210045663,10.775228310502284,0.16802739726028745,42.0,10.0,45.0,3.6,44.0,29.0
Aragog,34.068321000000005,-118.449322,90024,16154.0,Los Angeles County,7.853261244698772,Not applicable,226.7365296803653,8.049885844748859,0.13852054794521435,42.0,10.0,45.0,3.6,44.0,29.0
Araxxi,30.549139,-87.218586,32514,1917.0,Escambia County,7.675750165098162,,206.77020547945202,15.432534246575342,0.1351780821917743,25.0,6.0,27.0,2.2,26.0,17.0
Arbiter,38.303522,-77.47614200000002,22401,2326.0,Fredericksburg City,7.833943384908843,,180.9197488584475,7.675,0.15238356164382064,47.0,11.2,50.0,4.1,49.0,32.0
Arby,40.0909,-75.2242,19038,4010.0,Philadelphia County,7.832399556280966,Not applicable,177.51518264840183,6.8054794520547945,0.2167945205479716,55.0,14.0,63.0,4.9,57.0,39.0
Arcadia,40.051219,-75.377229,19087,2018.0,Delaware County,7.831966934814916,Not applicable,174.9670091324201,7.165639269406393,0.16457534246574065,55.0,14.0,63.0,4.9,57.0,39.0
Arcanine,38.64526400000001,-90.313271,63105,6647.0,Saint Louis County,7.832121432768406,"Stable, normal stage",181.73047945205482,7.855136986301369,0.16241095890411614,38.0,9.1,41.0,3.3,40.0,26.0
ArcherNM,46.728969,-117.165017,99164,,Whitman County,,,165.92054794520547,2.092351598173516,0.3042739726027741,17.0,4.0,18.0,1.4,18.0,11.0
ArcherS7,41.744494,-72.690511,06106,9436.0,Hartford County,7.830975777712389,Falling stage,168.72705479452054,5.6625570776255705,0.2178904109589068,31.0,7.4,33.0,2.7,32.0,21.0
Archetta,34.065,-118.4425,,,Los Angeles County,7.831126444767905,Not applicable,226.7365296803653,8.049885844748859,0.13852054794521435,42.0,10.0,45.0,3.6,44.0,29.0
Archie,44.567722,-123.281986,97331,7464.0,Benton County,7.829379657824013,"Stable, normal stage",156.91027397260274,7.4495433789954335,0.13813698630134874,23.0,5.5,24.0,2.0,24.0,16.0
Archimedes,,,,,,,,166.06221461187215,6.1813470319634725,0.20728767123284966,35.0,8.4,37.0,3.0,37.0,24.0
Archis,40.442222,-80.01,15222,4055.0,Allegheny County,7.82860836620896,"Stable, normal stage",166.61826484018266,6.101712328767122,0.21501369863012293,35.0,8.4,37.0,3.0,37.0,24.0
Arete,,,,,,,,174.29452054794518,2.9713013698630126,0.3317808219178016,65.0,18.7,83.0,5.9,67.0,47.0
Argie,30.56,-87.22,32514,1917.0,Escambia County,7.818703440990998,,203.3537671232877,15.233504566210046,0.11635616438356745,25.0,6.0,27.0,2.2,26.0,17.0
Ariadne,40.4443,-79.9532,15260,,Allegheny County,7.73660727886649,"Stable, normal stage",165.3197488584475,6.24406392694064,0.21063013698629074,35.0,8.4,37.0,3.0,37.0,24.0
Ariel,40.00405,-83.002236,43201,11514.0,Franklin County,7.818056892456666,Not applicable,171.3874429223744,6.369520547945205,0.2559452054794956,13.0,3.1,14.0,1.1,13.0,9.0
Aries55,34.941704,-81.031891,29731,,York County,7.815028532617627,"Stable, normal stage",201.33995433789954,10.174429223744294,0.14706849315068365,46.0,11.0,49.0,4.0,48.0,32.0
Arlo,32.318889,-98.020806,76433,12.0,Erath County,7.81658254125142,,209.6224885844749,10.367351598173515,0.14884931506850332,38.0,9.1,41.0,3.3,40.0,26.0
Armstrong,40.444253,-79.953239,15260,,Allegheny County,7.816276145592167,"Stable, normal stage",165.3197488584475,6.24406392694064,0.21063013698629074,35.0,8.4,37.0,3.0,37.0,24.0
Aroostook,32.467045,-94.724361,75602,475.0,Gregg County,7.8154183438605305,Not applicable,199.6557077625571,11.948515981735161,0.13501369863011378,33.0,7.9,35.0,2.9,34.0,23.0
Arri,40.4406,-79.9959,15262,,Allegheny County,7.815116019141449,"Stable, normal stage",166.06221461187215,6.1813470319634725,0.20728767123284966,35.0,8.4,37.0,3.0,37.0,24.0
Arroyo,35.448056,-97.288889,73020,344.0,Oklahoma County,7.817345557601124,"Stable, normal stage",203.35262557077633,8.364954337899544,0.1656712328767236,60.0,16.3,73.0,5.4,62.0,43.0
Artemis2UCLA,34.2011,-118.5364,91335,11328.0,Los Angeles County,7.817494069662382,Not applicable,229.12865296803653,6.185730593607308,0.13821917808219644,42.0,10.0,45.0,3.6,44.0,29.0
Arturo,37.230244,-78.459618,23901,82.0,Prince Edward County,7.812815625633175,"Stable, normal stage",186.42785388127854,8.925342465753424,0.14276712328764646,46.0,11.0,49.0,4.0,48.0,32.0
Asapag,43.653597,-116.676876,83605,1423.0,Canyon County,7.812301799459862,"Stable, normal stage",190.51598173515976,-0.03184931506849315,0.3120273972602873,34.0,8.1,36.0,2.9,36.0,23.0
Asayake,42.788333,-86.100278,49423,580.0,Ottawa County,7.812475629875706,"Stable, high stage",166.8412100456621,5.32468036529679,0.2966849315068809,26.0,6.2,28.0,2.2,27.0,18.0
Ashton,28.06,-82.41967,33613-4628,,Hillsborough County,7.800155725392424,"Stable, normal stage",215.200799086758,17.88093607305936,0.14720547945206433,24.0,5.7,25.0,2.1,25.0,16.0
Asriel,34.9401,-81.0316,29731,,York County,7.797765884754912,"Stable, normal stage",201.33995433789954,10.174429223744294,0.14706849315068365,46.0,11.0,49.0,4.0,48.0,32.0
Asten,35.519565,-105.24846200000002,87703,,San Miguel County,,,227.1466894977169,-1.1984018264840182,0.1692054794520518,46.0,11.0,49.0,4.0,48.0,32.0
Astraea,35.782178,-78.666092,27695,,Wake County,7.790416225444815,"Stable, normal stage",192.6365296803653,10.211415525114155,0.14268493150683312,39.0,9.3,42.0,3.4,41.0,27.0
Astro,32.769528,-79.929511,29415,,Charleston County,7.789899298922398,Not determined,199.05627853881282,15.504337899543383,0.08495890410960122,44.0,10.5,47.0,3.8,46.0,30.0
Atcoo,39.6095,-104.8819,80111,2688.0,Arapahoe County,7.791114194897909,"Stable, normal stage",207.75136986301368,-1.9788470319634728,0.2473972602740384,34.0,8.1,36.0,2.9,36.0,23.0
Atiba,31.32903,-89.333516,39406,6458.0,Forrest County,7.790303559340836,,201.95308219178082,13.743721461187215,0.14252054794521166,16.0,3.8,17.0,1.4,16.0,11.0
Atkinbua,40.325994,-111.735727,84602,,Utah County,7.793974039137366,,194.8086757990868,-0.9799086757990868,0.3022739726027875,43.0,10.3,46.0,3.7,45.0,30.0
Atlantean,38.920212,-77.01897,20009,36495.0,Washington,7.787787479297898,,183.91632420091324,7.457762557077626,0.1584657534246516,47.0,11.2,50.0,4.1,49.0,32.0
Atraxa,40.9046,-75.3863,18353,271.0,Monroe County,7.7955433666325655,Not applicable,168.2942922374429,5.228196347031964,0.2135342465753796,38.0,9.1,41.0,3.3,40.0,26.0
Atraxi,,,,,,,,170.40445205479455,6.060388127853881,0.2274520547944613,50.0,12.0,54.0,4.4,53.0,35.0
Attacne,34.068582,-118.441285,90095,8.0,Los Angeles County,7.786314743670603,Not applicable,226.7365296803653,8.049885844748859,0.13852054794521435,42.0,10.0,45.0,3.6,44.0,29.0
Attis,40.443889,-79.957222,15213,14474.0,Allegheny County,7.785952705655186,"Stable, normal stage",165.3197488584475,6.24406392694064,0.21063013698629074,35.0,8.4,37.0,3.0,37.0,24.0
Attoomi,29.711028,-98.133833,78130,645.0,Comal County,7.789434045026313,"Stable, normal stage",210.64280821917808,12.936392694063931,0.13504109589041655,27.0,6.4,29.0,2.3,28.0,18.0
Atuin,,,,,,,,162.46746575342462,2.0579908675799095,0.3163013698630409,21.0,5.0,22.0,1.8,22.0,14.0
Aubergine,40.447237,-79.953973,15213,14474.0,Allegheny County,7.7898103684397695,"Stable, normal stage",165.3197488584475,6.24406392694064,0.21063013698629074,35.0,8.4,37.0,3.0,37.0,24.0
Audrey,40.445394,-79.963324,15213,14474.0,Allegheny County,7.7893508549764965,"Stable, normal stage",166.06221461187215,6.1813470319634725,0.20728767123284966,35.0,8.4,37.0,3.0,37.0,24.0
Audrick,39.004361,-77.21325,20854,1470.0,Montgomery County,7.7819834913944685,,177.09714611872147,7.8215068493150675,0.1544109589040936,38.0,9.1,41.0,3.3,40.0,26.0
AugsMagnumOpus,38.189528,-83.43119399999998,40351,82.0,Rowan County,,,176.41164383561645,7.639041095890411,0.17030136986301242,47.0,11.2,50.0,4.1,49.0,32.0
Austintatious,33.135789,-97.13997,76226,386.0,Denton County,7.781482018652217,"Stable, normal stage",205.98721461187213,10.660844748858446,0.15789041095891834,42.0,10.0,45.0,3.6,44.0,29.0
Auxilium,42.93382,-78.64562,14086,940.0,Erie County,7.7815998378040145,Falling stage,155.4804794520548,4.9589041095890405,0.3080273972603217,13.0,3.1,14.0,1.1,13.0,9.0
Ava3,42.930441,-85.589264,,,Kent County,7.781644576184963,,165.19406392694063,4.544634703196347,0.30394520547947024,26.0,6.2,28.0,2.2,27.0,18.0
AvadaKedavra,40.127499,-91.530556,63435,30.0,Lewis County,7.781642699953348,Rising stage,177.38561643835618,6.229223744292238,0.229260273972632,18.0,4.3,19.0,1.5,19.0,12.0
Avani,39.834,-77.235659,17325,215.0,Adams County,7.781304919893259,"Stable, normal stage",171.3845890410959,6.428196347031964,0.21909589041099947,41.0,9.8,44.0,3.6,43.0,28.0
AvatarAhPeg,41.82568300000001,-71.403061,02912,31555.0,,7.780538203523767,Not determined,169.83527397260275,6.191438356164384,0.20150684931503712,50.0,12.0,54.0,4.4,53.0,35.0
Avazak,35.479444,-93.468889,72830,113.0,Johnson County,7.779638762682993,"Stable, normal stage",191.75468036529682,9.987671232876714,0.16095890410960656,46.0,11.0,49.0,4.0,48.0,32.0
Avle17,42.120573,-71.98548000000002,01507,308.0,Worcester County,7.7794347696415045,Rising stage,169.91130136986303,4.956929223744291,0.21254794520548773,46.0,11.0,49.0,4.0,48.0,32.0
Avocado,40.308,-79.556,15601,690.0,Westmoreland County,7.7791899699204015,"Stable, normal stage",166.3529680365297,6.08299086757991,0.26558904109594,36.0,8.6,38.0,3.1,38.0,25.0
Avocadoman,,,,,,,,160.95582191780818,2.773744292237444,0.4035616438355933,21.0,5.0,22.0,1.8,22.0,14.0
Avrafan,40.682647,-73.981224,11217,47796.0,Kings County,7.775790216111361,,174.33824200913241,7.4506849315068475,0.15589041095890907,35.0,8.4,37.0,3.0,37.0,24.0
Awesomesauce,41.824593,-71.40338,02912,31555.0,,7.77555602868509,Falling stage,169.83527397260275,6.191438356164384,0.20150684931503712,50.0,12.0,54.0,4.4,53.0,35.0
AxiPup,46.73099000000001,-117.153909,99164,,Whitman County,,,165.71141552511415,2.0019634703196267,0.29616438356166785,17.0,4.0,18.0,1.4,18.0,11.0
Axym,43.652875,-116.677023,83605,1423.0,Canyon County,7.775401135465077,"Stable, normal stage",190.51598173515976,-0.03184931506849315,0.3120273972602873,34.0,8.1,36.0,2.9,36.0,23.0
Azathoth,40.086221,-75.229467,19118,3075.0,Philadelphia County,7.774479686270082,Not applicable,177.51518264840183,6.8054794520547945,0.2167945205479716,55.0,14.0,63.0,4.9,57.0,39.0
Aziz,47.667416,-117.401525,99258,,Spokane County,7.7742408967447485,Not applicable,160.9194063926941,1.7452054794520548,0.29493150684927943,13.0,3.1,14.0,1.1,13.0,9.0
Azizam,42.31842,-72.639588,01060,1400.0,Hampshire County,7.774231284475246,Falling stage,164.99885844748854,4.5856164383561655,0.2681643835616319,38.0,9.1,41.0,3.3,40.0,26.0
Azula,,,,,,,,165.3197488584475,6.24406392694064,0.21063013698629074,35.0,8.4,37.0,3.0,37.0,24.0
BAKA,35.139283,-78.999624,28307,1507.0,,7.771461738157841,,190.8197488584475,11.285776255707752,0.1527671232876856,53.0,13.0,59.0,4.7,55.0,37.0
BBQValindra,,,,,,,,158.55593607305937,3.4551369863013703,0.3524383561643947,25.0,6.0,27.0,2.2,26.0,17.0
BEEST,38.650249,-90.316691,63130,5973.0,Saint Louis County,7.777286316453183,Falling stage,181.73047945205482,7.855136986301369,0.16241095890411614,40.0,9.6,43.0,3.5,42.0,28.0
BENtherdunthat,40.442283,-79.954758,15213,14474.0,Allegheny County,7.7760690530895715,"Stable, normal stage",165.3197488584475,6.24406392694064,0.21063013698629074,35.0,8.4,37.0,3.0,37.0,24.0
BGlluviae,36.956944,-86.463889,42104,528.0,Warren County,,,181.31529680365296,9.667157534246572,0.16150684931508502,44.0,10.5,47.0,3.8,46.0,30.0
BPBiebs31,39.688386,-75.319294,08098,161.0,Salem County,7.7609263206885295,,180.6791095890411,7.864726027397261,0.21142465753428646,45.0,10.8,48.0,3.9,47.0,31.0
BPs,40.444259,-79.953213,15260,,Allegheny County,7.759833335277246,"Stable, normal stage",165.3197488584475,6.24406392694064,0.21063013698629074,35.0,8.4,37.0,3.0,37.0,24.0
BQuat,38.645638,-90.311388,63105,6647.0,Saint Louis County,7.761519123237418,Falling stage,181.73047945205482,7.855136986301369,0.16241095890411614,38.0,9.1,41.0,3.3,40.0,26.0
BRock,38.379099,-78.965025,22812,207.0,Rockingham County,7.766493141502073,"Stable, normal stage",182.06187214611873,6.130707762557077,0.1832328767123484,23.0,5.5,24.0,2.0,24.0,16.0
BabeRuth,40.1523,-97.406,68362,9.0,Thayer County,7.774256149570185,,186.52317351598168,5.311404109589044,0.2376164383561961,21.0,5.0,22.0,1.8,22.0,14.0
Babsiella,40.68355800000001,-73.979038,11217,47796.0,Kings County,7.771440788375674,,174.33824200913241,7.4506849315068475,0.15589041095890907,35.0,8.4,37.0,3.0,37.0,24.0
Baby16,40.129,-91.528,63435,30.0,Lewis County,7.7714433581580735,Falling stage,177.38561643835618,6.229223744292238,0.229260273972632,18.0,4.3,19.0,1.5,19.0,12.0
BabyGotBac,33.207,-97.152,76203,,Denton County,7.772673720612353,"Stable, normal stage",208.52066210045663,10.775228310502284,0.16802739726028745,42.0,10.0,45.0,3.6,44.0,29.0
Bachome,29.723452,-95.344122,77004,5660.0,Harris County,7.777644906201941,Not determined,200.11141552511413,16.157420091324198,0.15780821917809426,24.0,5.7,25.0,2.1,25.0,16.0
BackyardAgain,,,,,,,,181.9478310502283,6.468904109589047,0.16276712328767706,46.0,11.0,49.0,4.0,48.0,32.0
Backyardigan,37.503741,-85.575411,,,Larue County,7.7777059924294365,,182.35810502283104,8.613926940639269,0.20043835616441588,45.0,10.8,48.0,3.9,47.0,31.0
BaconJack,40.686389,-79.2825,15774,56.0,Indiana County,7.777609696958272,"Stable, normal stage",163.88995433789958,5.729337899543379,0.2919178082192294,37.0,8.8,39.0,3.2,39.0,25.0
Bactobuster,36.046939,-80.01847,27265,1114.0,Guilford County,7.7755590066909885,"Stable, normal stage",189.53607305936075,9.023972602739725,0.1546301369862992,49.0,11.7,52.0,4.3,51.0,34.0
BadAgartude,42.619617,-87.821333,53140,3473.0,Kenosha County,7.7755590066909885,Not applicable,166.74212328767123,4.8859589041095886,0.2167945205478883,35.0,8.4,37.0,3.0,37.0,24.0
BadStone,41.832034,-71.38011999999998,02906,8758.0,,7.774486029149563,"Stable, normal stage",168.94269406392695,5.956621004566211,0.19975342465749435,38.0,9.1,41.0,3.3,40.0,26.0
Badfish,40.440355,-79.94845699999998,15213-4026,,Allegheny County,7.775178303179691,"Stable, normal stage",165.3197488584475,6.24406392694064,0.21063013698629074,35.0,8.4,37.0,3.0,37.0,24.0
Badger,36.988611,-86.44833299999998,42101,197.0,Warren County,7.775172720390008,,181.31529680365296,9.667157534246572,0.16150684931508502,44.0,10.5,47.0,3.8,46.0,30.0
Baee,40.4417,-79.9512,15260,,Allegheny County,7.774039383708835,"Stable, normal stage",165.3197488584475,6.24406392694064,0.21063013698629074,35.0,8.4,37.0,3.0,37.0,24.0
Baehexic,36.84275,-86.778139,42206,46.0,Logan County,7.774050807601387,,184.6667808219178,9.47050228310502,0.1578904109589131,34.0,8.1,36.0,2.9,36.0,23.0
BaghaKamala,42.500833,85.810167,,,和静县,,,164.75331050228309,5.073059360730594,0.3201917808219325,29.0,6.9,31.0,2.5,30.0,20.0
Baines,40.442858,-79.953061,15260,,Allegheny County,7.773943816786303,"Stable, normal stage",165.3197488584475,6.24406392694064,0.21063013698629074,35.0,8.4,37.0,3.0,37.0,24.0
Bakery,40.4426,-79.9542,15260,,Allegheny County,7.771301576644226,"Stable, normal stage",165.3197488584475,6.24406392694064,0.21063013698629074,35.0,8.4,37.0,3.0,37.0,24.0
Baloo,40.446882,-79.95492,15213,14474.0,Allegheny County,7.770865812901323,"Stable, normal stage",165.3197488584475,6.24406392694064,0.21063013698629074,35.0,8.4,37.0,3.0,37.0,24.0
Balsa,40.4375,-79.9465,15213-4026,,Allegheny County,7.770709099500913,"Stable, normal stage",165.3197488584475,6.24406392694064,0.21063013698629074,35.0,8.4,37.0,3.0,37.0,24.0
BananaFence,33.618118,78.979935,,,日土县,,,198.38002283105027,14.533904109589045,0.1163835616438468,44.0,10.5,47.0,3.8,46.0,30.0
Bananafish,38.9227,-77.0208,20009,36495.0,Washington,7.767459036202612,,183.91632420091324,7.457762557077626,0.1584657534246516,47.0,11.2,50.0,4.1,49.0,32.0
Bandik,40.44609000000001,-79.957193,15213,14474.0,Allegheny County,7.767366169148578,"Stable, normal stage",165.3197488584475,6.24406392694064,0.21063013698629074,35.0,8.4,37.0,3.0,37.0,24.0
Bangla1971,40.735707,-73.820406,11367,17252.0,Queens County,7.768504778044688,,,,,,,,,,
Banjo,40.606541,-75.375524,18015,1546.0,Northampton County,7.768423250493507,Not applicable,170.40079908675796,6.190639269406392,0.17032876712327946,42.0,10.0,45.0,3.6,44.0,29.0
Banquo,32.782917,-79.945389,29425,,Charleston County,7.768227518299493,,199.05627853881282,15.504337899543383,0.08495890410960122,44.0,10.5,47.0,3.8,46.0,30.0
Bantam,44.979117,-92.759906,54016,442.0,Saint Croix County,7.7702389879554525,,164.7658675799087,2.3207762557077625,0.28578082191776977,21.0,5.0,22.0,1.8,22.0,14.0
Barb,42.929521,-85.588675,,,Kent County,7.770260279371759,,165.19406392694063,4.544634703196347,0.30394520547947024,26.0,6.2,28.0,2.2,27.0,18.0
Barco,40.447778,-79.959722,15219,7277.0,Allegheny County,7.770169218373253,"Stable, normal stage",165.3197488584475,6.24406392694064,0.21063013698629074,35.0,8.4,37.0,3.0,37.0,24.0
Barnyard,40.277643,-79.37729399999998,15650,381.0,Westmoreland County,7.7698659806640435,,164.86369863013698,5.48310502283105,0.28589041095895834,36.0,8.6,38.0,3.1,38.0,25.0
BarrelRoll,37.121433,-84.586883,42503,177.0,Pulaski County,7.7684983460678225,,178.57602739726028,8.539383561643836,0.1915342465753782,47.0,11.2,50.0,4.1,49.0,32.0
BarretLemon,44.938522,-91.388147,54729,189.0,Chippewa County,7.768062015125103,Not applicable,162.97454337899543,1.7871004566210045,0.3386027397260692,29.0,6.9,31.0,2.5,30.0,20.0
Barsten,41.477357,-81.626524,44104:44127,,Cuyahoga County,7.768082747458657,Falling stage,164.16198630136986,6.022602739726027,0.3116712328767592,34.0,8.1,36.0,2.9,36.0,23.0
Bartholomew,42.619444,-87.821389,53140,3473.0,Kenosha County,7.768082747458657,,166.74212328767123,4.8859589041095886,0.2167945205478883,35.0,8.4,37.0,3.0,37.0,24.0
Bartimeaus,37.05658,-84.616182,42533,547.0,Pulaski County,7.767359385394857,Not determined,177.41780821917808,8.226027397260275,0.19084931506852865,47.0,11.2,50.0,4.1,49.0,32.0
Basquiat,38.921667,-77.01916700000002,20009,36495.0,Washington,7.769464634735159,,183.91632420091324,7.457762557077626,0.1584657534246516,47.0,11.2,50.0,4.1,49.0,32.0
BatStarr,40.440006,-79.95739300000002,15213,14474.0,Allegheny County,7.767215058222296,"Stable, normal stage",165.3197488584475,6.24406392694064,0.21063013698629074,35.0,8.4,37.0,3.0,37.0,24.0
Batiatus,36.7021,-76.260389,23322,401.0,,7.767447486284603,,186.08162100456627,11.095091324200911,0.14515068493150704,57.0,14.9,67.0,5.1,59.0,40.0
BatteryCK,40.704831,-74.017844,10280,56710.0,New York County,7.763302667736344,,167.94634703196346,7.480022831050229,0.07775342465751928,35.0,8.4,37.0,3.0,37.0,24.0
Battuta,,,,,,,,208.7019406392694,10.796575342465754,0.15654794520549356,42.0,10.0,45.0,3.6,44.0,29.0
BaxterFox,40.443896,-79.955399,15213,14474.0,Allegheny County,7.767539688625902,"Stable, normal stage",165.3197488584475,6.24406392694064,0.21063013698629074,35.0,8.4,37.0,3.0,37.0,24.0
BayC,32.9262,-97.2908,76244,3514.0,Tarrant County,7.770884335531067,"Stable, normal stage",213.0552511415525,10.571849315068476,0.1802465753424972,42.0,10.0,45.0,3.6,44.0,29.0
Beagle,40.4467,-79.9545,15213,14474.0,Allegheny County,7.770763460983792,"Stable, normal stage",165.3197488584475,6.24406392694064,0.21063013698629074,35.0,8.4,37.0,3.0,37.0,24.0
Beaglebox,40.962778,-79.715278,16025,105.0,Butler County,7.7705896754658115,"Stable, normal stage",163.91312785388132,5.413698630136985,0.2992328767123709,37.0,8.8,39.0,3.2,39.0,25.0
BeanWater,34.075,-118.44,90095,8.0,Los Angeles County,7.770975203644547,Not applicable,231.3809360730594,7.317465753424657,0.10972602739727212,42.0,10.0,45.0,3.6,44.0,29.0
Beans,44.858915,-92.626856,54022,159.0,Pierce County,7.7708513546986175,,162.46746575342462,2.0579908675799095,0.3163013698630409,21.0,5.0,22.0,1.8,22.0,14.0
BeardedLady,32.954162,-97.285655,87248,,Tarrant County,7.771751623482883,"Stable, normal stage",209.1489726027397,10.655353881278524,0.17553424657537312,42.0,10.0,45.0,3.6,44.0,29.0
BeatusComedenti,37.375,-122.14,94022,1058.0,Santa Clara County,7.780617445569397,,216.7412100456621,8.553881278538812,0.11928767123287826,18.0,4.3,19.0,1.5,19.0,12.0
Beauxregard13,37.217019,-80.40104000000002,24063,,Montgomery County,7.779666492317477,,184.8769406392694,6.178196347031964,0.17249315068494767,46.0,11.0,49.0,4.0,48.0,32.0
Beaver,34.1762,-93.0983,,,Clark County,,,190.60833333333332,12.06769406392694,0.12728767123286516,29.0,6.9,31.0,2.5,30.0,20.0
Beckerton,,,,,,,,166.8412100456621,5.32468036529679,0.2966849315068809,26.0,6.2,28.0,2.2,27.0,18.0
BeeBee8,40.782933,-79.687821,,,Armstrong County,7.77969819064775,"Stable, normal stage",162.51050228310498,5.823630136986301,0.29334246575347545,37.0,8.8,39.0,3.2,39.0,25.0
BeeGee,34.1251,-93.0536,71923,40.0,Clark County,,,193.1207762557077,12.091095890410955,0.1545753424657545,29.0,6.9,31.0,2.5,30.0,20.0
Beelzebub,40.76289000000001,-96.62133,68516,2046.0,Lancaster County,7.784000746830546,"Stable, normal stage",183.0037671232877,5.170890410958903,0.278547945205531,21.0,5.0,22.0,1.8,22.0,14.0
Beemo,27.328044,-80.3998,34986,1197.0,St. Lucie County,7.782816224715883,"Stable, normal stage",217.6731735159817,19.22168949771689,0.16136986301370998,18.0,4.3,19.0,1.5,19.0,12.0
Beenie,40.441353,-79.958187,15213,14474.0,Allegheny County,7.782684743661608,"Stable, normal stage",165.3197488584475,6.24406392694064,0.21063013698629074,35.0,8.4,37.0,3.0,37.0,24.0
BeesKnees,41.081909,-73.927521,10960,3599.0,Rockland County,7.777086361970383,,168.32260273972602,6.337157534246575,0.2069863013698425,23.0,5.5,24.0,2.0,24.0,16.0
Beethoven,42.198,-72.3824,01080,1351.0,Hampshire County,7.7770834645990705,Not applicable,166.43082191780826,4.856232876712335,0.2400000000000317,50.0,12.0,54.0,4.4,53.0,35.0
Beezoo,36.93262,-86.40674,42103,267.0,Warren County,7.798927784755121,,180.650799086758,9.865273972602736,0.163890410958919,44.0,10.5,47.0,3.8,46.0,30.0
Begonia,40.440464,-79.955696,15213-4026,,Allegheny County,7.776964748283804,"Stable, normal stage",165.3197488584475,6.24406392694064,0.21063013698629074,35.0,8.4,37.0,3.0,37.0,24.0
Belenaria,42.347015,-71.134265,02134-1433,,Suffolk County,7.7763440591653055,"Stable, normal stage",168.22591324200909,6.145433789954338,0.20876712328761304,42.0,10.0,45.0,3.6,44.0,29.0
Belfort,,,,,,,,181.73047945205482,7.855136986301369,0.16241095890411614,38.0,9.1,41.0,3.3,40.0,26.0
Bella96,42.711111,-84.777778,48837,238.0,Eaton County,7.776385182827902,,165.64691780821911,4.3665525114155255,0.33408219178083337,29.0,6.9,31.0,2.5,30.0,20.0
Belladonna,36.986944,-86.454444,42101,197.0,Warren County,7.792048508828398,,181.31529680365296,9.667157534246572,0.16150684931508502,44.0,10.5,47.0,3.8,46.0,30.0
BellusTerra,39.835278,-77.235556,17325,215.0,Adams County,7.776145484046991,Not applicable,171.3845890410959,6.428196347031964,0.21909589041099947,41.0,9.8,44.0,3.6,43.0,28.0
BelmontSKP,35.2644,-81.0159,28012,733.0,Gaston County,7.882948899995665,,196.26780821917808,9.912214611872146,0.13073972602738054,46.0,11.0,49.0,4.0,48.0,32.0
Belthelas,39.514,-84.7261,45056,356.0,Butler County,7.7759569878251815,,173.1092465753425,6.68458904109589,0.1946575342466027,43.0,10.3,46.0,3.7,45.0,30.0
Benczkowski14,40.44300000000001,-79.957,15213,14474.0,Allegheny County,7.775738020252522,"Stable, normal stage",165.3197488584475,6.24406392694064,0.21063013698629074,35.0,8.4,37.0,3.0,37.0,24.0
Benedict,31.549671000000004,-97.116683,76798,53347.0,McLennan County,7.776121417285286,,207.06575342465754,12.313173515981743,0.15936986301371422,34.0,8.1,36.0,2.9,36.0,23.0
Benjalauren,39.331194,-76.61980600000003,21211,6225.0,,7.776412164072528,,177.81438356164384,7.5454337899543376,0.1645479452054667,34.0,8.1,36.0,2.9,36.0,23.0
Bennie,40.314262,-80.004413,15129,1356.0,Allegheny County,7.776153095551717,"Stable, normal stage",166.95981735159816,5.841324200913242,0.2271780821918068,38.0,9.1,41.0,3.3,40.0,26.0
Benvolio,37.242,-80.428,24060-3348,,Montgomery County,7.775962880878419,,179.90068493150685,6.629394977168947,0.17419178082193765,46.0,11.0,49.0,4.0,48.0,32.0
Bernal13,29.625,-82.366,32612,6675.0,Alachua County,7.775269371264063,,209.5836757990868,16.38253424657535,0.13772602739725434,17.0,4.0,18.0,1.4,18.0,11.0
Bernardo,34.074363,-118.44384,90095,8.0,Los Angeles County,7.775380574385997,Not applicable,231.3809360730594,7.317465753424657,0.10972602739727212,42.0,10.0,45.0,3.6,44.0,29.0
Bernstein,40.444253,-79.953239,15260,,Allegheny County,7.816276145592167,"Stable, normal stage",165.3197488584475,6.24406392694064,0.21063013698629074,35.0,8.4,37.0,3.0,37.0,24.0
Bethlehem,40.626025,-75.37054499999998,18018,6291.0,Northampton County,7.775069497976326,Not applicable,170.40079908675796,6.190639269406392,0.17032876712327946,42.0,10.0,45.0,3.6,44.0,29.0
BetterKatz,40.442567,-79.95727600000002,15213,14474.0,Allegheny County,7.7748550752644645,"Stable, normal stage",165.3197488584475,6.24406392694064,0.21063013698629074,35.0,8.4,37.0,3.0,37.0,24.0
Beuffert,32.882949,-117.233315,92093,,San Diego County,7.775036030955445,Not applicable,226.3700913242009,10.005479452054798,0.135616438356161,48.0,11.5,51.0,4.2,50.0,33.0
BiPauneto,18.259,-66.0,00778,1533.0,Gurabo,7.766673860812153,"Stable, normal stage",,,,,,,,,
Bialota,40.443172,-79.955837,,,Allegheny County,7.774873008333022,"Stable, normal stage",165.3197488584475,6.24406392694064,0.21063013698629074,35.0,8.4,37.0,3.0,37.0,24.0
BiancaTri92,34.16605,-84.059058,,,Gwinnett County,7.773615726770087,Not determined,192.50182648401832,10.362671232876714,0.0474246575342537,53.0,13.0,59.0,4.7,55.0,37.0
Bibwit,40.4426,-79.956,,,Allegheny County,7.773504334938546,"Stable, normal stage",165.3197488584475,6.24406392694064,0.21063013698629074,35.0,8.4,37.0,3.0,37.0,24.0
Big3,37.6,-77.42,23222,2959.0,Henrico County,7.7717985023298715,,185.5695205479452,8.671689497716894,0.14863013698629454,24.0,5.7,25.0,2.1,25.0,16.0
BigCheese,40.49153,-80.034324,15212,4483.0,Allegheny County,7.771796348431662,"Stable, normal stage",166.49771689497715,6.38310502283105,0.2364931506849485,35.0,8.4,37.0,3.0,37.0,24.0
BigChungus,,,,,,,,183.57534246575344,4.587328767123288,0.2958630136986434,26.0,6.2,28.0,2.2,27.0,18.0
BigMack,42.1847,-72.3836,01080,1351.0,Hampden County,7.772007975907135,Not applicable,168.02739726027397,5.119748858447489,0.2387123287671433,50.0,12.0,54.0,4.4,53.0,35.0
BigMama,38.930852,-77.103008,20016,7324.0,Washington,7.769108131102892,,176.97545662100455,7.90513698630137,0.14646575342463874,47.0,11.2,50.0,4.1,49.0,32.0
BigMau,38.64,-90.31,63105,6647.0,Saint Louis County,7.769204857581676,"Stable, normal stage",181.73047945205482,7.855136986301369,0.16241095890411614,38.0,9.1,41.0,3.3,40.0,26.0
BigPhil,33.748631,-84.414569,30314,4716.0,Fulton County,7.763297846303589,Peak stage,199.52751141552508,10.476940639269406,0.1290410958903956,51.0,12.1,55.0,4.5,54.0,36.0
BigRedClifford,,,,,,,,166.74212328767123,4.8859589041095886,0.2167945205478883,35.0,8.4,37.0,3.0,37.0,24.0
Bigfoot,47.748425,-117.425464,99251,,Spokane County,,,161.47899543378998,1.5651826484018263,0.27857534246581106,13.0,3.1,14.0,1.1,13.0,9.0
Biglebops,37.129,-84.0833,40741,105.0,Laurel County,,,178.07625570776256,7.807762557077625,0.16706849315070108,48.0,11.5,51.0,4.2,50.0,33.0
BillNye,38.644806,-90.312267,63105,6647.0,Saint Louis County,7.7648930329029,Peak stage,181.73047945205482,7.855136986301369,0.16241095890411614,38.0,9.1,41.0,3.3,40.0,26.0
Bing,41.475,-87.814,60423,834.0,Will County,7.765900544283128,Not determined,171.22111872146118,5.205559360730593,0.2775616438356577,39.0,9.3,42.0,3.4,41.0,27.0
Bioscum,34.972256,-101.929614,79015,50.0,Randall County,7.7662794680813585,,226.67328767123288,3.4912100456621005,0.20580821917809766,74.0,23.0,101.0,6.8,75.0,54.0
Bipolar,43.655,-116.676389,83605,1423.0,Canyon County,7.766702513812223,"Stable, normal stage",190.51598173515976,-0.03184931506849315,0.3120273972602873,34.0,8.1,36.0,2.9,36.0,23.0
Bipolarisk,40.62138,-96.94805,68333,72.0,Saline County,7.769695479253053,Not applicable,183.8195205479452,5.0382420091324205,0.2494246575342807,21.0,5.0,22.0,1.8,22.0,14.0
Bipper,40.446194,-79.9595,15240,,Allegheny County,7.769388107353621,"Stable, normal stage",,,,,,,,,
Birchlyn,40.01,-76.61,17406,447.0,York,7.769680844324467,"Stable, normal stage",174.35422374429226,6.4833333333333325,0.2106027397260702,38.0,9.1,41.0,3.3,40.0,26.0
Bircsak,42.2667,-71.8,01608,8688.0,Worcester County,7.769449389680298,Not applicable,169.97739726027396,5.050262557077628,0.2430684931506717,46.0,11.0,49.0,4.0,48.0,32.0
BirksAndSocks,40.39527800000001,-79.95433299999998,15207,2350.0,Allegheny County,7.769366848714447,"Stable, normal stage",164.67328767123288,6.330821917808219,0.20745205479450896,35.0,8.4,37.0,3.0,37.0,24.0
Bishoperium,38.9227,-77.0188,20009,36495.0,Washington,7.770983176513674,,183.91632420091324,7.457762557077626,0.1584657534246516,47.0,11.2,50.0,4.1,49.0,32.0
BiteSize,40.44,-79.95,15213,14474.0,Allegheny County,7.770847617935122,"Stable, normal stage",165.3197488584475,6.24406392694064,0.21063013698629074,35.0,8.4,37.0,3.0,37.0,24.0
Bizzy,36.081558,-79.770905,27411,,Guilford County,7.770411192310482,,188.952397260274,8.9513698630137,0.1366301369862883,38.0,9.1,41.0,3.3,40.0,26.0
Bjanes7,40.445,-79.953333,15260,,Allegheny County,7.7703417175463345,"Stable, normal stage",165.3197488584475,6.24406392694064,0.21063013698629074,35.0,8.4,37.0,3.0,37.0,24.0
BlackStallion,40.283222,-80.05542,15367,948.0,Washington County,7.7669543388385955,"Stable, normal stage",166.8488584474886,6.005707762557077,0.2409863013699186,38.0,9.1,41.0,3.3,40.0,26.0
Blackbeetle,42.44741,-71.076466,02176,5767.0,Middlesex County,7.769767080421749,"Stable, low stage",,,,,,,,,
Blackmoor,37.239,-80.417,24060-3348,,Montgomery County,7.767218275015979,,179.90068493150685,6.629394977168947,0.17419178082193765,46.0,11.0,49.0,4.0,48.0,32.0
Blair,31.5514,-97.1558,76707,5115.0,McLennan County,7.767343370588857,,205.5966894977169,12.208276255707753,0.1464931506849385,34.0,8.1,36.0,2.9,36.0,23.0
Blessica,40.009,-105.2719,80309,,Boulder County,7.76668697324754,Not applicable,186.02214611872142,-2.0170662100456624,0.2716712328767645,31.0,7.4,33.0,2.7,32.0,21.0
Blexus,41.052683,-73.807079,10523,2063.0,Westchester County,7.766372302371258,,,,,,,,,,
BlingBling,40.443889,-79.950639,15213,14474.0,Allegheny County,7.766243507535517,"Stable, normal stage",165.3197488584475,6.24406392694064,0.21063013698629074,35.0,8.4,37.0,3.0,37.0,24.0
Blinn1,28.059722,-97.53,78387,45.0,San Patricio County,7.766525319343407,"Stable, normal stage",212.71061643835617,16.68230593607306,0.1710136986301585,10.0,2.4,10.0,0.8,10.0,7.0
Blizzard,42.788429,-86.101383,49423,580.0,Ottawa County,7.766982514828081,Falling stage,166.8412100456621,5.32468036529679,0.2966849315068809,26.0,6.2,28.0,2.2,27.0,18.0
Blue,40.458372,-79.94852900000002,15224,10075.0,Allegheny County,7.763098768902237,"Stable, normal stage",165.3197488584475,6.24406392694064,0.21063013698629074,35.0,8.4,37.0,3.0,37.0,24.0
BlueFeather,34.056389,-118.445,90024,16154.0,Los Angeles County,7.764032043402397,Not applicable,226.7365296803653,8.049885844748859,0.13852054794521435,42.0,10.0,45.0,3.6,44.0,29.0
BlueRugrat,28.336833,-82.26491700000003,33574-6665,,Pasco County,7.7612856012431966,"Stable, normal stage",216.09531963470317,16.735730593607308,0.15512328767124806,12.0,2.8,12.0,1.0,12.0,8.0
Blueeyedbeauty,33.211081,-97.146375,76203,,Denton County,7.763970812378777,"Stable, normal stage",208.52066210045663,10.775228310502284,0.16802739726028745,42.0,10.0,45.0,3.6,44.0,29.0
Bluefalcon,27.765068,-97.412192,78404,5548.0,Nueces County,7.7641420209351555,Not determined,,,,,,,,,
Bluephacebaby,,,,,,,,175.20856164383565,7.49200913242009,0.16854794520545618,67.0,19.7,87.0,6.1,69.0,48.0
Bmoc,38.526848,-90.656203,63025,346.0,Saint Louis County,7.761303113130943,"Stable, high stage",181.32808219178082,7.835605022831051,0.15767123287670812,22.0,5.2,23.0,1.9,23.0,15.0
Bob3,38.635353,-90.289728,63110,2732.0,,7.761595399953067,Not applicable,181.73047945205482,7.855136986301369,0.16241095890411614,38.0,9.1,41.0,3.3,40.0,26.0
BobSwaget,42.669444,-71.147778,01810,1076.0,Essex County,7.759380719724548,Not applicable,162.38093607305936,5.700228310502284,0.2264657534246719,34.0,8.1,36.0,2.9,36.0,23.0
BobaPhett,39.957689,-75.18926,19151,12494.0,Philadelphia County,7.760935732289004,Not applicable,174.19646118721462,7.453995433789954,0.14523287671230675,67.0,19.7,87.0,6.1,69.0,48.0
Bobby,38.590793,-90.344983,63119,4048.0,Saint Louis County,7.760972552866321,Peak stage,183.35319634703202,7.790639269406393,0.16421917808220168,40.0,9.6,43.0,3.5,42.0,28.0
Bobi,41.512536,-86.460357,46554,70.0,Saint Joseph County,7.761216673801219,Not determined,166.49189497716895,5.673401826484017,0.2693972602740056,31.0,7.4,33.0,2.7,32.0,21.0
BobsGarage,40.49153,-80.034324,15212,4483.0,Allegheny County,7.771796348431662,"Stable, normal stage",166.49771689497715,6.38310502283105,0.2364931506849485,35.0,8.4,37.0,3.0,37.0,24.0
Bock,42.929439,-85.588667,,,Kent County,7.759396521230552,,165.19406392694063,4.544634703196347,0.30394520547947024,26.0,6.2,28.0,2.2,27.0,18.0
BodEinwohner17,39.804235,-75.92483399999998,19352,553.0,Chester County,7.7592475727870145,"Stable, normal stage",179.3029680365297,7.4219178082191775,0.2197260273972864,42.0,10.0,45.0,3.6,44.0,29.0
Bodacious,42.19,-72.38,01080,1351.0,Hampshire County,7.759230532969547,Not applicable,168.02739726027397,5.119748858447489,0.2387123287671433,50.0,12.0,54.0,4.4,53.0,35.0
Boehler,43.381475,-84.016327,48638,1956.0,Saginaw County,7.759263040392113,"Stable, normal stage",164.21027397260275,4.448972602739726,0.3481369863013553,8.0,1.9,8.0,0.7,8.0,5.0
Boersma,31.546757,-97.12077,76706,494.0,McLennan County,7.7596128408299805,,208.94497716894975,12.30309360730593,0.15572602739727026,34.0,8.1,36.0,2.9,36.0,23.0
Bogie,33.470015999999994,-92.873349,71701,71.0,Ouachita County,7.759490791246631,"Stable, normal stage",192.8623287671233,11.994520547945205,0.13104109589039906,59.0,15.9,71.0,5.3,61.0,42.0
Boiiii,42.788333,-86.105278,49423,580.0,Ottawa County,7.759585458506867,"Stable, high stage",166.8412100456621,5.32468036529679,0.2966849315068809,26.0,6.2,28.0,2.2,27.0,18.0
Boilgate,30.207747,-97.79133,78745,4166.0,Travis County,7.76368792809544,Not applicable,207.7442922374429,12.648287671232874,0.14032876712329356,30.0,7.2,32.0,2.6,31.0,21.0
Bombshell,32.46759,-94.72494,75602,475.0,Gregg County,7.76350354909033,,199.6557077625571,11.948515981735161,0.13501369863011378,33.0,7.9,35.0,2.9,34.0,23.0
BonaeVitae,40.890833,-98.357778,,,Hall County,7.7635123809147695,Not applicable,186.82111872146118,3.9124429223744284,0.2453150684931853,21.0,5.0,22.0,1.8,22.0,14.0
Bonanza,32.361372,-93.814381,71047,113.0,Caddo Parish,7.763364059419858,,200.21312785388128,12.939041095890412,0.14942465753426032,28.0,6.7,30.0,2.4,29.0,19.0
Bones,47.688579,-114.11619,,,Lake County,7.763622655466405,,153.59577625570773,-0.06415525114155253,0.3228219178081564,20.0,4.8,21.0,1.7,21.0,14.0
BonesMcCoy,37.1333,-80.5479,24141,324.0,,7.76341259987521,,179.78367579908675,6.37134703196347,0.15504109589040746,46.0,11.0,49.0,4.0,48.0,32.0
Bongo,38.644208,-90.314927,63143,4910.0,Saint Louis County,7.763695502944689,Not applicable,181.73047945205482,7.855136986301369,0.16241095890411614,40.0,9.6,43.0,3.5,42.0,28.0
Bonino,40.442456,-79.95355,15260,,Allegheny County,7.7636390793437835,"Stable, normal stage",165.3197488584475,6.24406392694064,0.21063013698629074,35.0,8.4,37.0,3.0,37.0,24.0
Bonray,34.533056,-83.985,30597,,Lumpkin County,7.7602078926825975,Not determined,193.7167808219178,9.897488584474884,0.13586301369860698,60.0,16.3,73.0,5.4,62.0,43.0
Boomer,40.444259,-79.953213,15260,,Allegheny County,7.759833335277246,"Stable, normal stage",165.3197488584475,6.24406392694064,0.21063013698629074,35.0,8.4,37.0,3.0,37.0,24.0
BoomerJR,38.640278,-90.294722,63110,2732.0,,7.759937673522764,"Stable, normal stage",181.73047945205482,7.855136986301369,0.16241095890411614,38.0,9.1,41.0,3.3,40.0,26.0
Boopy,40.446,-79.9531,15213,14474.0,Allegheny County,7.759846279624119,"Stable, normal stage",165.3197488584475,6.24406392694064,0.21063013698629074,35.0,8.4,37.0,3.0,37.0,24.0
BoostSeason,27.622778000000004,-80.401611,32960,1763.0,Indian River County,7.75510145528209,,218.33219178082192,19.01541095890411,0.15720547945206834,18.0,4.3,19.0,1.5,19.0,12.0
Bordeaux,33.041985,-97.172043,75022,1174.0,Denton County,7.759136227560162,"Stable, normal stage",207.41712328767125,10.727625570776256,0.16027397260275228,42.0,10.0,45.0,3.6,44.0,29.0
Bosnia,40.442102,-79.965586,15213,14474.0,Allegheny County,7.7590468498320835,"Stable, normal stage",166.06221461187215,6.1813470319634725,0.20728767123284966,35.0,8.4,37.0,3.0,37.0,24.0
BossLady,40.712784,-74.005941,10000,,New York County,7.760085912351007,,167.6159817351598,7.0296803652968025,0.14857534246576318,35.0,8.4,37.0,3.0,37.0,24.0
Bovely,32.857739,-97.284448,76137,4057.0,Tarrant County,7.762956797292403,"Stable, normal stage",209.54931506849314,10.446312785388137,0.19109589041097333,38.0,9.1,41.0,3.3,40.0,26.0
Bowden,33.210659,-97.147261,76203,,Denton County,7.76375170533149,"Stable, normal stage",208.52066210045663,10.775228310502284,0.16802739726028745,42.0,10.0,45.0,3.6,44.0,29.0
Bowser,40.44826,-79.94966,15213,14474.0,Allegheny County,7.763596042333004,"Stable, normal stage",165.3197488584475,6.24406392694064,0.21063013698629074,35.0,8.4,37.0,3.0,37.0,24.0
Bowtie,40.604604,-75.374866,18015,1546.0,Northampton County,7.763598515933883,"Stable, normal stage",170.40079908675796,6.190639269406392,0.17032876712327946,42.0,10.0,45.0,3.6,44.0,29.0
BoyNamedSue,40.444364,-79.952489,15260,,Allegheny County,7.763399004746122,"Stable, normal stage",165.3197488584475,6.24406392694064,0.21063013698629074,35.0,8.4,37.0,3.0,37.0,24.0
Boyle,40.309898,-79.55739100000002,15601,690.0,Westmoreland County,7.763489333508258,"Stable, normal stage",166.3529680365297,6.08299086757991,0.26558904109594,36.0,8.6,38.0,3.1,38.0,25.0
Brad,39.99999,-83.02371,43210,6102.0,Franklin County,7.76152628947583,Falling stage,171.3874429223744,6.369520547945205,0.2559452054794956,13.0,3.1,14.0,1.1,13.0,9.0
Bradissa,40.179428,-79.982923,15063,410.0,Washington County,7.76165042709536,"Stable, normal stage",165.97808219178089,6.062442922374427,0.2342739726027619,38.0,9.1,41.0,3.3,40.0,26.0
Bradley2,47.666198,-117.404479,99258,,Spokane County,7.761520165524275,Not applicable,160.9194063926941,1.7452054794520548,0.29493150684927943,13.0,3.1,14.0,1.1,13.0,9.0
Bradshaw,40.44237,-79.93464,15217,7151.0,Allegheny County,7.761271779271422,"Stable, normal stage",165.3197488584475,6.24406392694064,0.21063013698629074,35.0,8.4,37.0,3.0,37.0,24.0
Braelyn,39.612021,-86.21472299999998,,,Johnson County,7.761457524881568,Not applicable,177.12842465753425,7.065639269406392,0.2210410958904344,21.0,5.0,22.0,1.8,22.0,14.0
Brahms,40.444253,-79.953239,15260,,Allegheny County,7.816276145592167,"Stable, normal stage",165.3197488584475,6.24406392694064,0.21063013698629074,35.0,8.4,37.0,3.0,37.0,24.0
Bran,33.543682000000004,-86.77963299999998,35234,1772.0,Jefferson County,7.799989594174307,,196.86780821917807,11.498744292237447,0.13854794520548586,58.0,15.4,69.0,5.2,60.0,41.0
Brandonk123,44.8502,-92.624713,54022,159.0,Pierce County,7.761996670533932,,162.46746575342462,2.0579908675799095,0.3163013698630409,21.0,5.0,22.0,1.8,22.0,14.0
Brataylor,29.279137,-94.806243,77551,4655.0,Galveston County,7.762482931014023,Not determined,211.37602739726032,17.35730593607306,0.12156164383561707,20.0,4.8,21.0,1.7,21.0,14.0
BreSam8,40.86,-74.19,07013,6213.0,Passaic County,7.76793050821365,,171.08047945205482,6.804680365296804,0.1824931506849266,42.0,10.0,45.0,3.6,44.0,29.0
Bread,40.62182,-96.949539,68333,72.0,Saline County,7.76515713848153,,183.8195205479452,5.0382420091324205,0.2494246575342807,21.0,5.0,22.0,1.8,22.0,14.0
Breeniome,40.779001,-73.53291,11753,3099.0,Nassau County,7.769600471140455,"Stable, normal stage",173.91518264840184,7.55719178082192,0.1840547945205465,45.0,10.8,48.0,3.9,47.0,31.0
Breezic,42.455574,-96.328776,51106,852.0,Woodbury County,7.769577996574205,Not applicable,176.64840182648402,3.3783105022831053,0.3097808219178294,65.0,18.7,83.0,5.9,67.0,47.0
Breezona,42.063572,-71.022925,02301,4908.0,Plymouth County,7.769351518631227,Not applicable,167.00171232876713,6.214840182648403,0.2230684931507084,59.0,15.9,71.0,5.3,61.0,42.0
Brent,39.96043,-75.36064,19008,3132.0,Delaware County,7.769110498868798,,176.79235159817352,7.065525114155253,0.1739178082191798,45.0,10.8,48.0,3.9,47.0,31.0
Breylor17,40.004751,-83.010869,43210,6102.0,Franklin County,7.767936808915781,Falling stage,171.3874429223744,6.369520547945205,0.2559452054794956,13.0,3.1,14.0,1.1,13.0,9.0
Bri160,,,,,,,,195.16518264840184,-1.4984132420091318,0.3083835616438892,39.0,9.3,42.0,3.4,41.0,27.0
Bricole,36.855833,-76.053,23454,1970.0,,7.773299531471717,,187.11586757990867,10.910616438356163,0.1211506849315058,57.0,14.9,67.0,5.1,59.0,40.0
Bridgette,40.445278,-79.953611,15260,,Allegheny County,7.7732196256549235,"Stable, normal stage",165.3197488584475,6.24406392694064,0.21063013698629074,35.0,8.4,37.0,3.0,37.0,24.0
BritBrat,40.44539,-79.960189,15213,14474.0,Allegheny County,7.773069021199398,"Stable, normal stage",166.06221461187215,6.1813470319634725,0.20728767123284966,35.0,8.4,37.0,3.0,37.0,24.0
Briton15,39.255,-76.713611,21228,3070.0,Baltimore County,7.773069021199398,,180.49235159817349,7.419178082191781,0.17175342465754556,34.0,8.1,36.0,2.9,36.0,23.0
Brocalys,40.865264,-74.195513,07043,4671.0,Essex County,7.771070231525675,,171.08047945205482,6.804680365296804,0.1824931506849266,42.0,10.0,45.0,3.6,44.0,29.0
Bromden,42.2896,-83.4289,48188,2275.0,Wayne County,7.766520213562645,Falling stage,166.43207762557074,5.13,0.3012876712328915,30.0,7.2,32.0,2.6,31.0,21.0
Broseidon,38.643055,-90.301944,63112-0040,,,7.766731072219289,Falling stage,181.73047945205482,7.855136986301369,0.16241095890411614,38.0,9.1,41.0,3.3,40.0,26.0
BrownCNA,33.96269,-83.70152,30680,413.0,Barrow County,7.765741685323023,Falling stage,196.8102739726028,10.171917808219176,0.1445205479452121,51.0,12.1,55.0,4.5,54.0,36.0
Brownie5,42.38,-84.44,49277,103.0,Jackson County,7.765711054580795,Not applicable,164.59737442922375,4.323173515981735,0.3098904109589391,27.0,6.4,29.0,2.3,28.0,18.0
BruceLethal,34.065,-118.4425,,,Los Angeles County,7.831126444767905,Not applicable,226.7365296803653,8.049885844748859,0.13852054794521435,42.0,10.0,45.0,3.6,44.0,29.0
Bruin,34.0,-118.0,91745,4217.0,Los Angeles County,7.762945343471043,,226.13744292237442,6.503995433789954,0.13208219178080055,42.0,10.0,45.0,3.6,44.0,29.0
Bruiser,42.320269,-72.636763,01063,11081.0,Hampshire County,7.762860116054176,Not determined,164.99885844748854,4.5856164383561655,0.2681643835616319,38.0,9.1,41.0,3.3,40.0,26.0
Brujita,38.859494,-77.2332,22003,4501.0,Fairfax County,7.7598117087129115,,180.0123287671233,7.971232876712329,0.14854794520545173,47.0,11.2,50.0,4.1,49.0,32.0
Brunswick,,,,,,,,247.6672374429224,1.4961187214611873,0.2256164383561865,56.0,14.4,65.0,5.0,58.0,39.0
Brusacoram,46.816944,-92.10195,55811,403.0,Saint Louis County,7.759629880873429,Not applicable,158.26780821917808,0.9578767123287673,0.3918356164383128,17.0,4.0,18.0,1.4,18.0,11.0
BrutonGaster,39.4306,-119.7391,89521,335.0,Washoe County,7.759654023435861,"Stable, high stage",215.4541095890411,-1.8393835616438359,0.20405479452056693,25.0,6.0,27.0,2.2,26.0,17.0
BryanRecycles,33.227837,-97.130108,76209,3670.0,Denton County,7.760372989867383,"Stable, normal stage",208.52066210045663,10.775228310502284,0.16802739726028745,42.0,10.0,45.0,3.6,44.0,29.0
Bryce,40.44433400000001,-79.953067,15260,,Allegheny County,7.760160568838593,"Stable, normal stage",165.3197488584475,6.24406392694064,0.21063013698629074,35.0,8.4,37.0,3.0,37.0,24.0
Bryler,47.667074,-117.402995,99258,,Spokane County,7.760153688579228,"Stable, high stage",160.9194063926941,1.7452054794520548,0.29493150684927943,13.0,3.1,14.0,1.1,13.0,9.0
Brylie,36.078801,-79.77379499999998,27411,,Guilford County,7.75983393284908,,188.952397260274,8.9513698630137,0.1366301369862883,38.0,9.1,41.0,3.3,40.0,26.0
BubbaBear,39.195682,-96.575696,66502,191.0,Riley County,7.760050300762093,"Stable, high stage",188.35228310502282,6.428847031963465,0.20923287671234894,24.0,5.7,25.0,2.1,25.0,16.0
Bubbles123,32.588889,-97.041944,75054,930.0,Tarrant County,7.760774689957778,"Stable, normal stage",202.95810502283103,11.542328767123283,0.14671232876711576,38.0,9.1,41.0,3.3,40.0,26.0
Buck,47.0734,-122.9735,98505,,Thurston County,7.760153345643947,Not applicable,142.46495433789954,6.981449771689508,0.08465753424658291,14.0,3.3,15.0,1.2,14.0,9.0
Bud,40.607,-75.372,18015,1546.0,Northampton County,7.760157536395112,"Stable, normal stage",170.40079908675796,6.190639269406392,0.17032876712327946,42.0,10.0,45.0,3.6,44.0,29.0
Buggaboo,32.786603,-79.93629399999998,29403,3897.0,Charleston County,7.760032166780231,,199.05627853881282,15.504337899543383,0.08495890410960122,44.0,10.5,47.0,3.8,46.0,30.0
Bugsy,39.071353,-77.462942,20147,2721.0,Loudoun County,7.7590310337664254,,178.2376712328767,7.3294520547945226,0.2012328767123428,45.0,10.8,48.0,3.9,47.0,31.0
Bullzi2019,,,,,,,,218.20011415525119,19.958561643835615,0.14520547945206402,18.0,4.3,19.0,1.5,19.0,12.0
Bumble,,,,,,,,191.0107305936073,10.786872146118727,0.16175342465754886,56.0,14.4,65.0,5.0,58.0,39.0
Bumblebee11,33.980708,-84.00915,30043,2467.0,Gwinnett County,7.757379064872402,Not applicable,,,,,,,,,
Bunker,,,,,,,,166.06221461187215,6.1813470319634725,0.20728767123284966,35.0,8.4,37.0,3.0,37.0,24.0
Bunnies,34.025,-83.944,30043,2467.0,Gwinnett County,7.755608150306588,Falling stage,198.9817351598174,10.217808219178082,0.14726027397261876,53.0,13.0,59.0,4.7,55.0,37.0
Burger,34.127526,-93.050262,71998,8883.0,Clark County,7.755403538374593,,193.1207762557077,12.091095890410955,0.1545753424657545,29.0,6.9,31.0,2.5,30.0,20.0
Burnsey,35.947415,-79.02675699999998,27514,1653.0,Orange County,7.754385985019818,Not applicable,191.03458904109596,10.032077625570775,0.1411780821917578,50.0,12.0,54.0,4.4,53.0,35.0
Burro,44.70076,-92.6608,,,Pierce County,7.7541079186547535,,162.0890410958904,1.7270547945205479,0.3769863013698649,21.0,5.0,22.0,1.8,22.0,14.0
Burrough,42.0237,-93.6397,50013,,Story County,7.754192938651447,Not applicable,175.29086757990868,3.6403424657534256,0.24652054794525344,17.0,4.0,18.0,1.4,18.0,11.0
Burton,42.83599,-85.630596,49316,353.0,Kent County,7.754627560814441,,163.22328767123287,4.471461187214612,0.3497260273972852,26.0,6.2,28.0,2.2,27.0,18.0
BurtonThePup,38.9693,-77.0789,20815,5355.0,Montgomery County,7.752777759365352,,181.41632420091324,7.682990867579909,0.1470684931506652,47.0,11.2,50.0,4.1,49.0,32.0
Burwell21,35.188694,-80.832162,28274,,Mecklenburg County,7.754958477651328,,195.1027397260274,9.98607305936073,0.12728767123286594,46.0,11.0,49.0,4.0,48.0,32.0
Busephilis,35.713611,-97.551111,73025,220.0,Oklahoma County,7.755053904951668,"Stable, normal stage",204.01004566210045,7.8106164383561625,0.2062739726027505,60.0,16.3,73.0,5.4,62.0,43.0
Bustleton,40.097566,-75.025998,19115,5915.0,Philadelphia County,7.754241617204034,Not applicable,175.3529680365297,7.084132420091324,0.17734246575343726,45.0,10.8,48.0,3.9,47.0,31.0
Butterball,40.444383,-79.96066400000002,15213,14474.0,Allegheny County,7.754184023141493,"Stable, normal stage",166.06221461187215,6.1813470319634725,0.20728767123284966,35.0,8.4,37.0,3.0,37.0,24.0
Butters,40.06067,-75.04660799999998,19152,11811.0,Philadelphia County,7.7527745484570065,Not applicable,174.56689497716891,7.551826484018265,0.1734794520548089,67.0,19.7,87.0,6.1,69.0,48.0
Butterscotch,40.444259,-79.953213,15260,,Allegheny County,7.759833335277246,"Stable, normal stage",165.3197488584475,6.24406392694064,0.21063013698629074,35.0,8.4,37.0,3.0,37.0,24.0
Buttons,44.555822,-67.86397099999999,04658,56.0,Washington County,,,159.21175799086757,4.164497716894977,0.2743835616437935,33.0,7.9,35.0,2.9,34.0,23.0
Buttrmlkdreams,39.1934,96.5965,736300,,肃北蒙古族自治县 (Subei),,,188.35228310502282,6.428847031963465,0.20923287671234894,24.0,5.7,25.0,2.1,25.0,16.0
BuzzLyseyear,40.001674,-83.013416,43210,6102.0,Franklin County,7.752650272234758,Not applicable,171.3874429223744,6.369520547945205,0.2559452054794956,13.0,3.1,14.0,1.1,13.0,9.0
Bxb1,40.84,-73.78,10464,1295.0,Bronx County,7.749486772488066,Not determined,169.9731735159817,6.476141552511415,0.12989041095887233,21.0,5.0,22.0,1.8,22.0,14.0
Bxz1,40.84,-73.87,10460,43567.0,Bronx County,7.746457083483772,Not determined,172.93196347031963,7.102625570776255,0.1504657534246333,30.0,7.2,32.0,2.6,31.0,21.0
Bxz2,40.84,-73.87,10460,43567.0,Bronx County,7.746457083483772,Not determined,172.93196347031963,7.102625570776255,0.1504657534246333,30.0,7.2,32.0,2.6,31.0,21.0
ByChance,39.9484,-75.20905,19104,17232.0,Philadelphia County,7.744973642401267,Not applicable,174.26518264840183,7.510844748858447,0.13728767123286073,67.0,19.7,87.0,6.1,69.0,48.0
Byougenkin,25.42,-80.17,,,Miami-Dade County,7.745028649569257,Not applicable,223.5103881278539,20.966438356164385,0.028000000000003283,29.0,6.9,31.0,2.5,30.0,20.0
CGermain,40.0867,-75.2286,19118,3075.0,Philadelphia County,7.744262027381708,Not applicable,177.51518264840183,6.8054794520547945,0.2167945205479716,55.0,14.0,63.0,4.9,57.0,39.0
CLED96,33.746,-84.413,30314,4716.0,Fulton County,7.737865245154857,Not applicable,199.52751141552508,10.476940639269406,0.1290410958903956,51.0,12.1,55.0,4.5,54.0,36.0
CREW,38.636111,-90.32075,63105,6647.0,Saint Louis County,7.732506174847436,Falling stage,180.06141552511414,7.602853881278539,0.1534794520547796,40.0,9.6,43.0,3.5,42.0,28.0
Cabrinians,40.857999,-73.93562,10040,111184.0,New York County,7.747151293236276,,172.4615296803653,6.90109589041096,0.1179726027397542,21.0,5.0,22.0,1.8,22.0,14.0
Cactojaque,38.919722,-77.019444,20009,36495.0,Washington,7.767505145714281,,183.91632420091324,7.457762557077626,0.1584657534246516,47.0,11.2,50.0,4.1,49.0,32.0
Cactus,33.748326,-84.414507,30314,4716.0,Fulton County,7.744066895435983,"Stable, low stage",199.52751141552508,10.476940639269406,0.1290410958903956,51.0,12.1,55.0,4.5,54.0,36.0
CactusJack,32.4654,-94.7273,75602,475.0,Gregg County,7.743685390381162,,199.6557077625571,11.948515981735161,0.13501369863011378,33.0,7.9,35.0,2.9,34.0,23.0
CactusRose,32.215833,-110.908,85716-5400,,Pima County,7.743829132011287,"Stable, normal stage",244.66529680365292,1.930388127853884,0.19643835616441466,34.0,8.1,36.0,2.9,36.0,23.0
Caelakin,46.815,-92.104,55811,403.0,Saint Louis County,7.743691912146708,"Stable, normal stage",158.26780821917808,0.9578767123287673,0.3918356164383128,17.0,4.0,18.0,1.4,18.0,11.0
Caelum,41.40897,-75.662415,,,Lackawanna County,7.743357310795197,Not applicable,163.4439497716895,4.765410958904108,0.27783561643837146,34.0,8.1,36.0,2.9,36.0,23.0
Cain,47.667363,-117.401673,99258,,Spokane County,7.743351473135044,"Stable, high stage",160.9194063926941,1.7452054794520548,0.29493150684927943,13.0,3.1,14.0,1.1,13.0,9.0
Cali,37.355149,-121.954765,95050,6808.0,Santa Clara County,7.743321841096482,Not applicable,217.41073059360733,7.850114155251143,0.1439178082191885,17.0,4.0,18.0,1.4,18.0,11.0
Caliburn,32.887056,-97.094472,76051,1258.0,Tarrant County,7.7450165385017,"Stable, normal stage",204.8296803652968,11.046803652968038,0.16104109589042606,38.0,9.1,41.0,3.3,40.0,26.0
Calix,40.44277,-79.956343,,,Allegheny County,7.7449698642848555,"Stable, normal stage",165.3197488584475,6.24406392694064,0.21063013698629074,35.0,8.4,37.0,3.0,37.0,24.0
CallieOMalley,42.31971400000001,-72.637491,01060,1400.0,Hampshire County,7.744936129677048,Not applicable,164.99885844748854,4.5856164383561655,0.2681643835616319,38.0,9.1,41.0,3.3,40.0,26.0
CamL,38.91778,-77.01694,20001,17689.0,Washington,7.746028501727397,,183.91632420091324,7.457762557077626,0.1584657534246516,47.0,11.2,50.0,4.1,49.0,32.0
Cambiare,40.444282,-79.954022,15260,,Allegheny County,7.744762412001848,"Stable, normal stage",,,,,,,,,
Camille,40.4392,-79.95694,15213,14474.0,Allegheny County,7.744716022990453,"Stable, normal stage",165.3197488584475,6.24406392694064,0.21063013698629074,35.0,8.4,37.0,3.0,37.0,24.0
Camri,37.23272100000001,-80.409856,24063,,Montgomery County,7.745804809713569,,179.90068493150685,6.629394977168947,0.17419178082193765,46.0,11.0,49.0,4.0,48.0,32.0
Camster,,,,,,,,214.52488584474887,18.419977168949767,0.03035616438356561,25.0,6.0,27.0,2.2,26.0,17.0
Candle,33.259722,-87.610556,35473,593.0,Tuscaloosa County,7.745729019588272,,199.581392694064,12.507191780821914,0.13939726027396782,47.0,11.2,50.0,4.1,49.0,32.0
Cane17,32.698678,-88.26789699999998,34560,,Sumter County,7.745708202114296,,200.1410958904109,12.889840182648404,0.1641643835616572,18.0,4.3,19.0,1.5,19.0,12.0
Cannibal,47.3559,-68.3247,04756,188.0,Aroostook County,,,147.03002283105022,0.3415525114155251,0.4743561643835105,53.0,13.0,59.0,4.7,55.0,37.0
Canowicakte,40.014167,-75.39361099999998,19087-3305,,Delaware County,7.7457390472149505,Not applicable,176.94942922374432,6.740182648401826,0.17745205479453266,55.0,14.0,63.0,4.9,57.0,39.0
Cantare,40.438178,-79.951861,15213,14474.0,Allegheny County,7.74571333374655,"Stable, normal stage",165.3197488584475,6.24406392694064,0.21063013698629074,35.0,8.4,37.0,3.0,37.0,24.0
CapnMurica,40.442288,-79.940774,15213,14474.0,Allegheny County,7.7456216846673485,"Stable, normal stage",165.3197488584475,6.24406392694064,0.21063013698629074,35.0,8.4,37.0,3.0,37.0,24.0
Capricorn,37.482447,-85.905523,42784,45.0,Hardin County,7.745616804512004,,182.31449771689492,8.967465753424658,0.18816438356167564,45.0,10.8,48.0,3.9,47.0,31.0
CaptainKirk2,40.44574,-79.95371999999998,15213,14474.0,Allegheny County,7.745520351186898,"Stable, normal stage",165.3197488584475,6.24406392694064,0.21063013698629074,35.0,8.4,37.0,3.0,37.0,24.0
CaptainTrips,34.573975,-86.221176,35776,38.0,Marshall County,7.745470933560346,Not applicable,193.12625570776257,10.391780821917807,0.1426849315068364,56.0,14.4,65.0,5.0,58.0,39.0
Carcharodon,33.85425,-85.67559,,,Calhoun County,7.745460627491484,"Stable, low stage",191.23915525114154,10.920696347031988,0.1485205479451879,35.0,8.4,37.0,3.0,37.0,24.0
Carlyle,36.11,-115.14,89154,,Clark County,7.745496886171616,Rising stage,235.91198630136986,-0.6769406392694064,0.18712328767125666,52.0,12.5,57.0,4.6,54.0,36.0
CarolAnn,40.445,-79.954,15213,14474.0,Allegheny County,7.745400745507416,"Stable, normal stage",165.3197488584475,6.24406392694064,0.21063013698629074,35.0,8.4,37.0,3.0,37.0,24.0
Carpal,42.2105,-72.6209,01040,1874.0,Hampden County,7.745289779727491,Not applicable,168.4150684931507,4.473972602739726,0.27030136986300146,50.0,12.0,54.0,4.4,53.0,35.0
CaseJules,42.788333,-86.101111,49423,580.0,Ottawa County,7.745341968633486,Falling stage,166.8412100456621,5.32468036529679,0.2966849315068809,26.0,6.2,28.0,2.2,27.0,18.0
Casend,47.671731,-117.402676,99258,,Spokane County,7.745189337997086,Not applicable,161.67682648401828,1.7281392694063902,0.27542465753430523,13.0,3.1,14.0,1.1,13.0,9.0
Casey,40.445294,-79.953914,15213,14474.0,Allegheny County,7.745143451106051,"Stable, normal stage",165.3197488584475,6.24406392694064,0.21063013698629074,35.0,8.4,37.0,3.0,37.0,24.0
CastorTray,39.999444,-83.023889,43210,6102.0,Franklin County,7.745064505118853,Falling stage,171.3874429223744,6.369520547945205,0.2559452054794956,13.0,3.1,14.0,1.1,13.0,9.0
Catalina,18.155256,-65.817953,00792,,Humacao,7.745034833850896,"Stable, normal stage",,,,,,,,,
Catera,40.444259,-79.953213,15260,,Allegheny County,7.759833335277246,"Stable, normal stage",165.3197488584475,6.24406392694064,0.21063013698629074,35.0,8.4,37.0,3.0,37.0,24.0
Caterpillar,31.57763,-97.15014,76708,526.0,McLennan County,7.744890216934958,Not applicable,205.5966894977169,12.208276255707753,0.1464931506849385,34.0,8.1,36.0,2.9,36.0,23.0
Catfish,32.2529,-95.3152,75703,685.0,Smith County,7.744461258256817,"Stable, normal stage",201.8934931506849,12.35930365296803,0.13961643835617346,37.0,8.8,39.0,3.2,39.0,25.0
Caviar,42.7931,-86.0969,49423,580.0,Ottawa County,7.74494828954138,Not determined,165.62773972602741,4.986187214611872,0.3325753424657595,26.0,6.2,28.0,2.2,27.0,18.0
Cborch11,43.359667,-98.410575,57313,6.0,Douglas County,,,175.85764840182648,2.387785388127854,0.3316986301369926,36.0,8.6,38.0,3.1,38.0,25.0
Celaena,40.496667,-80.013611,15214,3056.0,Allegheny County,7.7448353544402115,"Stable, normal stage",166.49771689497715,6.38310502283105,0.2364931506849485,35.0,8.4,37.0,3.0,37.0,24.0
Celia,33.216722999999995,-97.141322,76201,4857.0,Denton County,7.748667149611367,"Stable, normal stage",208.52066210045663,10.775228310502284,0.16802739726028745,42.0,10.0,45.0,3.6,44.0,29.0
Centaur,37.482447,-85.905523,42784,45.0,Hardin County,7.745616804512004,,182.31449771689492,8.967465753424658,0.18816438356167564,45.0,10.8,48.0,3.9,47.0,31.0
CentreCat,37.615676,-84.772153,40422,211.0,Boyle County,,,177.91027397260277,9.085502283105022,0.1839726027397549,47.0,11.2,50.0,4.1,49.0,32.0
Cepens,34.527941,-83.98771500000002,30597,,Lumpkin County,7.744599184792586,Not determined,193.7167808219178,9.897488584474884,0.13586301369860698,60.0,16.3,73.0,5.4,62.0,43.0
Cerasum,42.621111,-87.82055600000002,53140,3473.0,Kenosha County,7.744599184792586,Not applicable,166.74212328767123,4.8859589041095886,0.2167945205478883,35.0,8.4,37.0,3.0,37.0,24.0
Cerulean,41.18433,-71.4346,02807,116.0,,,,174.58093607305938,7.8562442922374425,0.04684931506848905,53.0,13.0,59.0,4.7,55.0,37.0
Chadwick,38.645207,-90.315256,63143,4910.0,Saint Louis County,7.7446820275407555,Falling stage,181.73047945205482,7.855136986301369,0.16241095890411614,40.0,9.6,43.0,3.5,42.0,28.0
Chaelin,,,,,,,,183.91632420091324,7.457762557077626,0.1584657534246516,47.0,11.2,50.0,4.1,49.0,32.0
Chah,40.201967,-79.686228,15679,142.0,Westmoreland County,7.7427246564884475,"Stable, normal stage",162.8154109589041,6.146689497716894,0.2699452054795026,36.0,8.6,38.0,3.1,38.0,25.0
ChampagnePapi,40.422497,-74.580495,08540,908.0,Somerset County,7.741005378253582,,171.88447488584475,6.910616438356165,0.20578082191782798,56.0,14.4,65.0,5.0,58.0,39.0
Chancellor,37.24416,-80.42143,24060-3348,,Montgomery County,7.740844143348363,,179.90068493150685,6.629394977168947,0.17419178082193765,46.0,11.0,49.0,4.0,48.0,32.0
Chandler,40.444522,-79.962874,15213,14474.0,Allegheny County,7.740684232455805,"Stable, normal stage",166.06221461187215,6.1813470319634725,0.20728767123284966,35.0,8.4,37.0,3.0,37.0,24.0
Changeling,46.73003,-117.16543,,,Whitman County,,,165.92054794520547,2.092351598173516,0.3042739726027741,17.0,4.0,18.0,1.4,18.0,11.0
Chaph,32.466,-94.731,75602,475.0,Gregg County,7.740381771457045,,199.6557077625571,11.948515981735161,0.13501369863011378,33.0,7.9,35.0,2.9,34.0,23.0
Chargie21,38.921667,-77.01916700000002,20009,36495.0,Washington,7.769464634735159,,183.91632420091324,7.457762557077626,0.1584657534246516,47.0,11.2,50.0,4.1,49.0,32.0
Charles1,,,,,,,,168.45936073059357,6.075114155251143,0.22819178082192584,23.0,5.5,24.0,2.0,24.0,16.0
Charlie,37.544958,-77.454041,23220,7400.0,,7.73806385249729,,183.61735159817349,9.038584474885845,0.1313972602739557,24.0,5.7,25.0,2.1,25.0,16.0
CharlieB,40.246244,-111.64965,84606,2853.0,Utah County,7.739512420938047,,195.16518264840184,-1.4984132420091318,0.3083835616438892,39.0,9.3,42.0,3.4,41.0,27.0
CharlieGBrown,40.0013,-83.0146,43210,6102.0,Franklin County,7.7397447511811475,"Stable, normal stage",171.3874429223744,6.369520547945205,0.2559452054794956,13.0,3.1,14.0,1.1,13.0,9.0
Charm,47.668611,-117.401944,99258,,Spokane County,7.739734046591263,"Stable, high stage",160.9194063926941,1.7452054794520548,0.29493150684927943,13.0,3.1,14.0,1.1,13.0,9.0
Charming,40.44803,-79.956289,15213,14474.0,Allegheny County,7.73968466164845,"Stable, normal stage",165.3197488584475,6.24406392694064,0.21063013698629074,35.0,8.4,37.0,3.0,37.0,24.0
ChaylaJr,38.922778,-77.021111,20009,36495.0,Washington,7.737946336988361,,183.91632420091324,7.457762557077626,0.1584657534246516,47.0,11.2,50.0,4.1,49.0,32.0
Cheesy,45.694894,-92.629019,54840,18.0,Burnett County,7.737338611785317,,161.09714611872147,1.5802511415525111,0.35956164383561634,32.0,7.6,34.0,2.8,33.0,22.0
CheetO,40.003968,-105.276004,80302,326.0,Boulder County,7.737084704373076,Not applicable,186.02214611872142,-2.0170662100456624,0.2716712328767645,31.0,7.4,33.0,2.7,32.0,21.0
Cheetobro,37.226181,-78.482626,,,Prince Edward County,7.7357353726948475,"Stable, normal stage",186.4592465753425,8.664497716894978,0.14698630136984364,46.0,11.0,49.0,4.0,48.0,32.0
Chelms,40.4445,-79.9615,15213,14474.0,Allegheny County,7.735719150281344,"Stable, normal stage",166.06221461187215,6.1813470319634725,0.20728767123284966,35.0,8.4,37.0,3.0,37.0,24.0
Chepli,35.305545,-83.18296099999998,28723,101.0,Jackson County,7.735405229292412,,191.1958904109589,7.831621004566211,0.1527397260273686,26.0,6.2,28.0,2.2,27.0,18.0
CherryBlossom,32.86309,-97.26924,76137,4057.0,Tarrant County,7.739911784270477,"Stable, normal stage",210.15011415525115,10.537089041095907,0.1801369863013959,38.0,9.1,41.0,3.3,40.0,26.0
Cherrybomb426,42.31884,-72.642477,01060,1400.0,Hampshire County,7.7398457512728225,Not determined,165.00262557077625,4.547716894977169,0.2734246575342758,38.0,9.1,41.0,3.3,40.0,26.0
CherryonLim,33.9094,-117.4987,92515,,Riverside County,7.739873377720354,"Stable, high stage",234.29771689497719,4.9711187214611865,0.15589041095892062,59.0,15.9,71.0,5.3,61.0,42.0
Chestnut,40.099299,-75.259635,19444,2171.0,Montgomery County,7.739881303529285,Not applicable,176.00468036529682,7.097374429223744,0.1822191780822185,55.0,14.0,63.0,4.9,57.0,39.0
ChewChew,42.9,-72.38,,,Cheshire County,7.738961336488187,Falling stage,164.313698630137,3.453630136986296,0.3158356164383323,38.0,9.1,41.0,3.3,40.0,26.0
Chewbacca,36.233013,-115.302754,89129,5122.0,Clark County,7.739880969690466,Rising stage,235.59794520547942,-1.6010273972602742,0.2422465753424796,19.0,4.5,20.0,1.6,20.0,13.0
ChewyVIII,32.704374,-93.759585,,,Bossier Parish,7.738887281953617,Not applicable,202.46746575342462,13.131940639269393,0.14241095890411656,28.0,6.7,30.0,2.4,29.0,19.0
ChickenKing,39.331667,-76.62,21211,6225.0,,7.738887281953617,,177.81438356164384,7.5454337899543376,0.1645479452054667,34.0,8.1,36.0,2.9,36.0,23.0
ChickenPhender,39.333859,-76.623489,21211,6225.0,,7.738887281953617,,177.81438356164384,7.5454337899543376,0.1645479452054667,34.0,8.1,36.0,2.9,36.0,23.0
Chidiebere,40.090481,-80.87633100000002,43950,191.0,Belmont County,7.738904346747316,"Stable, normal stage",166.06906392694063,6.342465753424658,0.24865753424662085,34.0,8.1,36.0,2.9,36.0,23.0
Chikenjars,40.828025,-96.693583,68503,5164.0,Lancaster County,7.738967920679888,"Stable, normal stage",185.0384703196347,4.695091324200913,0.22369863013703395,21.0,5.0,22.0,1.8,22.0,14.0
Childish,36.981111,-86.456389,42101,197.0,Warren County,7.738970114614941,,181.31529680365296,9.667157534246572,0.16150684931508502,44.0,10.5,47.0,3.8,46.0,30.0
Chill,39.1951,-96.58535,66502,191.0,Riley County,7.739103845631888,"Stable, high stage",188.35228310502282,6.428847031963465,0.20923287671234894,24.0,5.7,25.0,2.1,25.0,16.0
ChipMunk,44.897425,-68.668122,04469,11187.0,Penobscot County,7.739033266342333,,158.55593607305937,3.4551369863013703,0.3524383561643947,25.0,6.0,27.0,2.2,26.0,17.0
Chipper1996,40.956113,-76.882853,17837,318.0,Union County,7.739180936604357,"Stable, normal stage",164.04554794520547,5.503310502283106,0.2290410958904568,32.0,7.6,34.0,2.8,33.0,22.0
Chivey,39.853972,-75.479417,19060,1448.0,Delaware County,7.73890454600421,,177.3440639269406,7.099429223744293,0.1823287671233087,45.0,10.8,48.0,3.9,47.0,31.0
Chocolat,40.2311,-75.4119,19438,1065.0,Montgomery County,7.739097446705662,"Stable, normal stage",173.60776255707765,6.975913242009133,0.2018356164383932,55.0,14.0,63.0,4.9,57.0,39.0
Cholula,42.194,-72.3824,01080,1351.0,Hampshire County,7.73906832774363,Not applicable,166.43082191780826,4.856232876712335,0.2400000000000317,50.0,12.0,54.0,4.4,53.0,35.0
Chorkpop,38.645519,-90.312333,63143,4910.0,Saint Louis County,7.739238759198368,Falling stage,181.73047945205482,7.855136986301369,0.16241095890411614,38.0,9.1,41.0,3.3,40.0,26.0
ChosenOne,47.24800000000001,-68.59,04743,34.0,Aroostook County,,,149.5947488584475,0.36883561643835616,0.4749589041095448,53.0,13.0,59.0,4.7,55.0,37.0
ChotaBhai,36.98694,-86.45416,42101,197.0,Warren County,7.739244713684934,,181.31529680365296,9.667157534246572,0.16150684931508502,44.0,10.5,47.0,3.8,46.0,30.0
Chris,47.66754,-117.40058700000002,99258,,Spokane County,7.739242190094018,Not applicable,160.9194063926941,1.7452054794520548,0.29493150684927943,13.0,3.1,14.0,1.1,13.0,9.0
ChrisnMich,40.0,91.0,,,若羌县,,,,,,,,,,,
Christian,39.0,-75.0,,,Cape May County,7.738669811659476,"Stable, high stage",177.64006849315066,9.761004566210044,0.05073972602738748,50.0,12.0,54.0,4.4,53.0,35.0
Christoph,40.444253,-79.953239,15260,,Allegheny County,7.816276145592167,"Stable, normal stage",165.3197488584475,6.24406392694064,0.21063013698629074,35.0,8.4,37.0,3.0,37.0,24.0
Chubster,39.940708,-75.26129399999998,19050,7620.0,Delaware County,7.7383836487325075,,173.20993150684933,7.720319634703197,0.17838356164385585,67.0,19.7,87.0,6.1,69.0,48.0
Chuckly,44.555822,-67.86397099999999,04658,56.0,Washington County,,,159.21175799086757,4.164497716894977,0.2743835616437935,33.0,7.9,35.0,2.9,34.0,23.0
Chunky,36.991525,-122.058426,95064,3908.0,Santa Cruz County,7.738448471319148,Not applicable,215.05068493150685,8.325,0.1006027397260431,26.0,6.2,28.0,2.2,27.0,18.0
Chupacabra,27.748018,-97.411817,78415,379.0,Nueces County,7.7389116819378785,,218.46221461187213,17.918607305936074,0.15460273972603789,10.0,2.4,10.0,0.8,10.0,7.0
Chymera,33.354419,-97.087331,,,Denton County,7.739882054330595,"Stable, normal stage",202.83047945205482,10.734246575342468,0.08679452054795499,42.0,10.0,45.0,3.6,44.0,29.0
CicholasNage,37.221,-80.419,24061-9517,,Montgomery County,7.739588514122058,,184.8769406392694,6.178196347031964,0.17249315068494767,46.0,11.0,49.0,4.0,48.0,32.0
Cici,37.090351,-85.96994000000002,42127,70.0,Barren County,7.739614209297646,"Stable, high stage",180.706392694064,9.113812785388127,0.2009041095890784,34.0,8.1,36.0,2.9,36.0,23.0
Ciel,35.311667,-83.189722,28788,,Jackson County,7.739288253261628,,190.76586757990867,7.947031963470319,0.13506849315066227,26.0,6.2,28.0,2.2,27.0,18.0
Cinna,40.358611,-79.701667,15642,1025.0,Westmoreland County,7.739230359254773,"Stable, normal stage",165.64737442922373,6.232420091324201,0.20498630136986049,38.0,9.1,41.0,3.3,40.0,26.0
Cintron,27.163889,-80.237222,34994,2378.0,Martin County,7.739011754289668,"Stable, normal stage",221.43299086757992,19.655593607305935,0.1576986301369989,18.0,4.3,19.0,1.5,19.0,12.0
Circinus,38.6032,-90.2616,63116,7909.0,,7.7390838867209455,"Stable, normal stage",181.03732876712328,7.8625570776255715,0.1653698630137246,38.0,9.1,41.0,3.3,40.0,26.0
Circum,33.212622,-97.14895,76203,,Denton County,7.7405049641857016,"Stable, normal stage",208.52066210045663,10.775228310502284,0.16802739726028745,42.0,10.0,45.0,3.6,44.0,29.0
Citius,38.188611,-83.434167,,,Rowan County,,,176.41164383561645,7.639041095890411,0.17030136986301242,47.0,11.2,50.0,4.1,49.0,32.0
Clancy,38.395926,-85.437872,40032,,Oldham County,,,179.39417808219181,8.165753424657536,0.2290410958904372,53.0,13.0,59.0,4.7,55.0,37.0
Clark,40.4453,-79.9617,15213,14474.0,Allegheny County,7.740467022093299,"Stable, normal stage",166.06221461187215,6.1813470319634725,0.20728767123284966,35.0,8.4,37.0,3.0,37.0,24.0
Clautastrophe,30.034762,-90.24969,70065,6365.0,Jefferson Parish,7.740177833481304,"Stable, normal stage",206.0852739726028,16.562614155251147,0.05884931506849288,18.0,4.3,19.0,1.5,19.0,12.0
Clawz,,,,,,,,171.64075342465753,4.6508904109589055,0.2614246575342729,46.0,11.0,49.0,4.0,48.0,32.0
ClearAsMud,33.910340999999995,-117.495575,92515,,Riverside County,7.740080319256034,Not applicable,231.34486301369859,4.57796803652968,0.15487671232878011,59.0,15.9,71.0,5.3,61.0,42.0
Cleo,40.445897,-79.995338,15222,4055.0,Allegheny County,7.737819474753543,"Stable, normal stage",166.06221461187215,6.1813470319634725,0.20728767123284966,35.0,8.4,37.0,3.0,37.0,24.0
Clifton,40.8989,-73.8734,10470,10734.0,Bronx County,7.737819474753543,,173.4640410958904,6.630593607305932,0.17821917808216164,21.0,5.0,22.0,1.8,22.0,14.0
CloudWang3,34.042,-118.2638,90015,11100.0,Los Angeles County,7.737813258825077,Not applicable,223.37385844748852,7.181050228310503,0.1275890410958776,61.0,16.8,75.0,5.5,63.0,43.0
CloverMinnie,40.262021,-79.565175,15697,1691.0,Westmoreland County,7.737766388756131,"Stable, normal stage",166.53344748858447,5.713356164383563,0.261835616438399,36.0,8.6,38.0,3.1,38.0,25.0
Clown,40.445,-79.96194399999997,15213,14474.0,Allegheny County,7.737704691202559,"Stable, normal stage",166.06221461187215,6.1813470319634725,0.20728767123284966,35.0,8.4,37.0,3.0,37.0,24.0
ClubL,40.44664,-79.95436,15213,14474.0,Allegheny County,7.737559730921053,"Stable, normal stage",165.3197488584475,6.24406392694064,0.21063013698629074,35.0,8.4,37.0,3.0,37.0,24.0
ClubPenguin,,,,,,,,178.72226027397258,7.843607305936072,0.16838356164381665,34.0,8.1,36.0,2.9,36.0,23.0
Cobra,42.629444,-87.821389,53140,3473.0,Kenosha County,7.737559730921053,,166.74212328767123,4.8859589041095886,0.2167945205478883,35.0,8.4,37.0,3.0,37.0,24.0
Coco12,47.666528,-117.403221,99258,,Spokane County,7.7375538840178,"Stable, high stage",160.9194063926941,1.7452054794520548,0.29493150684927943,13.0,3.1,14.0,1.1,13.0,9.0
Cocoaberry,42.119994,-71.985376,01507,308.0,Worcester County,7.7375071605662225,Rising stage,169.91130136986303,4.956929223744291,0.21254794520548773,46.0,11.0,49.0,4.0,48.0,32.0
Coeur,40.44479000000001,-79.960463,15213,14474.0,Allegheny County,7.737490332572352,"Stable, normal stage",166.06221461187215,6.1813470319634725,0.20728767123284966,35.0,8.4,37.0,3.0,37.0,24.0
Coffee,38.922166,-77.018151,20009,36495.0,Washington,7.7359243516487775,,183.91632420091324,7.457762557077626,0.1584657534246516,47.0,11.2,50.0,4.1,49.0,32.0
ColaCorta,35.3167,-83.1648,28723,101.0,Jackson County,7.722975181684035,,190.76586757990867,7.947031963470319,0.13506849315066227,26.0,6.2,28.0,2.2,27.0,18.0
Colbert,44.560263,-123.274323,97333,183.0,Benton County,7.735189042566661,Not applicable,162.08082191780818,7.070696347031963,0.15890410958901807,23.0,5.5,24.0,2.0,24.0,16.0
Collard,38.754444,-90.288611,63135,3401.0,Saint Louis County,7.735351434266903,Not applicable,183.56152968036528,7.463698630136986,0.17687671232878485,40.0,9.6,43.0,3.5,42.0,28.0
Colleen,41.302222,-75.720556,18640,605.0,Luzerne County,7.735174517733749,Not applicable,160.58938356164384,4.932739726027396,0.246602739726048,35.0,8.4,37.0,3.0,37.0,24.0
Colt,27.69,-97.3784,78413,4605.0,Nueces County,7.7352980330440495,,216.12168949771686,18.121689497716893,0.15923287671234046,10.0,2.4,10.0,0.8,10.0,7.0
Coltrane,40.444253,-79.953239,15260,,Allegheny County,7.816276145592167,"Stable, normal stage",165.3197488584475,6.24406392694064,0.21063013698629074,35.0,8.4,37.0,3.0,37.0,24.0
Command613,36.0774,-79.7723,27411,,Guilford County,7.734970004352982,,188.952397260274,8.9513698630137,0.1366301369862883,38.0,9.1,41.0,3.3,40.0,26.0
Commander,39.526389,-84.732222,45056,356.0,Butler County,7.735204832967335,,173.1092465753425,6.68458904109589,0.1946575342466027,26.0,6.2,28.0,2.2,27.0,18.0
Compostia,42.780614,-86.109978,49423,580.0,Ottawa County,7.7357758049935414,"Stable, high stage",166.8412100456621,5.32468036529679,0.2966849315068809,26.0,6.2,28.0,2.2,27.0,18.0
Comrade,33.209374,-97.136695,76201,4857.0,Denton County,7.737319932746187,"Stable, normal stage",208.52066210045663,10.775228310502284,0.16802739726028745,42.0,10.0,45.0,3.6,44.0,29.0
Conboy,40.099299,-75.259635,19444,2171.0,Montgomery County,7.739881303529285,Not applicable,176.00468036529682,7.097374429223744,0.1822191780822185,55.0,14.0,63.0,4.9,57.0,39.0
ConceptII,40.61209142,-75.45566529,18101,11166.0,Lehigh County,7.737321710823668,"Stable, normal stage",171.32020547945206,6.0728310502283085,0.2049589041095959,42.0,10.0,45.0,3.6,44.0,29.0
Confidence,44.852,-92.621,54022,159.0,Pierce County,7.737588870940285,,162.46746575342462,2.0579908675799095,0.3163013698630409,21.0,5.0,22.0,1.8,22.0,14.0
Connomayer,27.765068,-97.412192,78404,5548.0,Nueces County,7.7641420209351555,Not determined,,,,,,,,,
Conquerage,27.328031,-80.358239,34983,2569.0,St. Lucie County,7.737352678522991,,217.67545662100457,19.30776255707763,0.15334246575343544,18.0,4.3,19.0,1.5,19.0,12.0
Conspiracy,34.0,-118.0,91745,4217.0,Los Angeles County,7.762945343471043,,226.13744292237442,6.503995433789954,0.13208219178080055,42.0,10.0,45.0,3.6,44.0,29.0
Constance,42.93382,-78.64562,14086,940.0,Erie County,7.7815998378040145,Falling stage,155.4804794520548,4.9589041095890405,0.3080273972603217,13.0,3.1,14.0,1.1,13.0,9.0
Constella,40.486389,-88.982222,61761-3621,,McLean County,7.737424278673171,,177.9,5.5188356164383565,0.2431506849315366,28.0,6.7,30.0,2.4,29.0,19.0
Contagion,33.969875,-118.420014,90293,4235.0,Los Angeles County,7.737440371397621,,226.6761415525114,9.144497716894966,0.13813698630138324,61.0,16.8,75.0,5.5,63.0,43.0
Convict,40.305444,-79.554167,15601,690.0,Westmoreland County,7.737398392895052,"Stable, normal stage",166.3529680365297,6.08299086757991,0.26558904109594,36.0,8.6,38.0,3.1,38.0,25.0
Coog,33.748631,-84.414569,30314,4716.0,Fulton County,7.763297846303589,Peak stage,199.52751141552508,10.476940639269406,0.1290410958903956,51.0,12.1,55.0,4.5,54.0,36.0
Cookies,38.917222,-119.731111,89460,244.0,Douglas County,7.734048676429543,Not applicable,221.35022831050227,-1.9666666666666663,0.20695890410959705,25.0,6.0,27.0,2.2,26.0,17.0
Cooper,40.444259,-79.953213,15260,,Allegheny County,7.759833335277246,"Stable, normal stage",165.3197488584475,6.24406392694064,0.21063013698629074,35.0,8.4,37.0,3.0,37.0,24.0
Copper,41.483333,-75.58111099999998,18452,2441.0,Lackawanna County,7.7335517158894085,"Stable, normal stage",160.34531963470317,4.445776255707763,0.3161917808219329,34.0,8.1,36.0,2.9,36.0,23.0
Coral,40.44803,-79.95235100000002,15213,14474.0,Allegheny County,7.733520059963706,"Stable, normal stage",165.3197488584475,6.24406392694064,0.21063013698629074,35.0,8.4,37.0,3.0,37.0,24.0
Corazon,40.698,-75.2102,18042-4524,,Northampton County,7.733522822212511,"Stable, normal stage",169.95205479452054,6.534132420091324,0.1838082191780788,42.0,10.0,45.0,3.6,44.0,29.0
Corgi,40.4458,-79.9569,15213,14474.0,Allegheny County,7.733491240754246,"Stable, normal stage",165.3197488584475,6.24406392694064,0.21063013698629074,35.0,8.4,37.0,3.0,37.0,24.0
Corndog,40.444259,-79.953213,15260,,Allegheny County,7.759833335277246,"Stable, normal stage",165.3197488584475,6.24406392694064,0.21063013698629074,35.0,8.4,37.0,3.0,37.0,24.0
Cornie,35.01814,-78.89518699999998,28306,578.0,,7.732844253166608,,189.89132420091323,11.643721461187216,0.15375342465755146,53.0,13.0,59.0,4.7,55.0,37.0
